specimen,plant_name,country,fst_political,snd_political,locality,habitat,elevation,latitude_decimal,longitude_decimal,collector,collector_number,collection_date,specimen_data,MO,NY,F,US,UC,RSA,GH,L,K,E,GOET,BR,LIL,CORD,CTES,SP,RB,REU,ANDES,SPF,CONC,SI,MOLF,LPB,USZ
EW548,Escallonia pulverulenta (Ruiz & Pav.) Pers.,Chile,Maule,Curico,Hacienda Monte Grande,,800,-35.2333333333333,-71.0666666666667,E. Werdermann,548,1-Mar-1924,,1,1,1,,1,,1,,1,1,,,,,,,,,,,,,,,
FB3541,Escallonia pulverulenta (Ruiz & Pav.) Pers.,Chile,Biobio,Concepción,Route d'Angol vers P.N. Nahuelbuta,Fourrés le long de la route,550,-37.8105555555556,-72.8611111111111,F. Billiet,3541,1-Jan-1985,Arbuste; inflor. en épis cylindriques; fl. Blanc-vert,1,,,,,,,,,,,1,,,,,,,,,,,,,
FZ118,Escallonia pulverulenta (Ruiz & Pav.) Pers.,Chile,Biobio,Concepción,Campus Universidad de Concepción,"Claramente cultivado en el campus de la U, pero nativa de la región (e.g. en Hualpén).",30,-36.8266666666667,-73.0416666666667,F. Zapata,118,4-Nov-2005,Arbusto 2 m; hojas algo glutinosas; botones florales verdosos.,,,,,,,,,,,,,,,,,,,,,,,,,
FZ122,Escallonia pulverulenta (Ruiz & Pav.) Pers.,Chile,Santiago,Santiago,Río Clarillo,En ladera pedregosa junto a E.cf.rubra y E.cf.myrtoidea.,954,-33.7291666666667,-70.4705555555556,F. Zapata,122,5-Nov-2005,arbusto 1.7 m; hojas glutinosas; no flores; no frutos.,,,,,,,,,,,,,,,,,,,,,,,,,
FZ361,Escallonia pulverulenta (Ruiz & Pav.) Pers.,Chile,Biobio,Concepción,"Nacimiento, camino viniendo de Maitenrehue en el cruce de desvío hacia Angol-Nacimiento",Bosque intervenido mezcado con Pinus. Suelo muy seco,354,-37.6877777777778,-72.7272222222222,"F. Zapata, S. Sede",361,19-Jan-2008,Arbolito de 1.8 m; flores blancas,1,,,,,,,,,,,,,,,,,,,,1,,,,
FZ95,Escallonia pulverulenta (Ruiz & Pav.) Pers.,Chile,Coquimbo,Pichidangui,Ascenso al Cerro Santa Inés,En zona de vegetación semi-árida (esclerófila). Muy común. Creciendo con Cassia sp. y Bacharis sp.,400,-32.1416666666667,-71.4827777777778,F. Zapata,95,1-Oct-2005,"Arbusto 1-2 m; hojas jóvenes rojizas, pegajosas; inflorescencias jóvenes (botones) blancos; frutos secos con estigma bífido.",,,,,,,,,,,,,,,,,,,,,,,,,
FZ96,Escallonia pulverulenta (Ruiz & Pav.) Pers.,Chile,Coquimbo,Pichidangui,Cerro Santa Inés,"En Borde de Bosque en pastizales junto a arbustos de Kageneckia, Litre y Myrceugenia.",671,-32.1625,-71.4275,F. Zapata,96,1-Oct-2005,Arbusto 2 m; no flores; frutos secos con estigma bífido.,,,,,,,,,,,,,,,,,,,,,,,,,
JS148,Escallonia pulverulenta (Ruiz & Pav.) Pers.,Chile,Valparaiso,Valparaiso,"Cuesta ""La Dormida"", 10 km west from Tiltil, on road to copper mine",Ravines and moister hillsides,1200,-33.04,-71.0161111111111,J.P. Simon,148,26-Dec-1970,"With Colliguaya, Azara, Ribes, Phacelia.  N.V. ""corontillo, mardoño""",,,,,1,1,,,,,,,,,,,,,,,,,,,
JS4959,Escallonia pulverulenta (Ruiz & Pav.) Pers.,Chile,Santiago,Santiago,Cuesta de Chacabuco,,1100,-33.035,-70.6333333333333,J. Salvo,4959,9-Nov-1986,,1,,,,,,,,,,,,,,,,,,,,,,,,
LL3831,Escallonia pulverulenta (Ruiz & Pav.) Pers.,Chile,Valparaiso,Playa Mirasol,"About 36 km north of San Antonio (ca 33 20 S, 71 40 W).  Steep 20-30 m high slopes and adjacent beaches","Succulents (cacti, Calandrina) and sclerophyllous shrubs (Myrceugenia, Cryptocarya, Lithrea) dominates",100,-33.45,-71.5666666666667,L.R. Landrum,3831,11-Nov-1981,Shrub ca. 3 m high; flowers white,,1,,,,,,1,,,,,,,,,,,,,,,,,
LL5844,Escallonia pulverulenta (Ruiz & Pav.) Pers.,Chile,Maule,Talca,"Road to Vilches, 26.5 km beyond main road to Laguna del Maule",Nothofagus obliqua - N. glauca forest on N facing slope.,1200,-35.7711111111111,-70.9338888888889,"L.R. Landrum, J. Bricker",5844,12-Jan-1988,Shrub ca. 4 m high. Flowers white,1,1,,,1,1,1,,,,,,,,,,,,,,,,,,
OZ10597,Escallonia pulverulenta (Ruiz & Pav.) Pers.,Chile,Valparaiso,Quilpues,,,400,-33.0883333333333,-71.2916666666667,O. Zöllner,10597,19-Dec-1979,,1,,,,,,,,,,,,,,,,,,,,,,,,
OZ16156,Escallonia pulverulenta (Ruiz & Pav.) Pers.,Chile,Maule,Linares,River Achibueno sup.,,800,-35.8616666666667,-71.575,O. Zöllner,16156,18-Jan-1990,,1,,,,,,,,,,,,,,,,,,,,,,,,
OZ18152,Escallonia pulverulenta (Ruiz & Pav.) Pers.,Chile,Valparaiso,Casablanca,,,370,-33.2988888888889,-71.3755555555556,O. Zöllner,18152,30-Nov-1991,,1,,,,,,,,,,,,,,,,,,,,,,,,
PNEsc1,Escallonia pulverulenta (Ruiz & Pav.) Pers.,Chile,Valparaiso,Aconcagua,Quebrada El Tigre,,,-32.5594722222222,-71.4433333333333,P. Necochea,PN-Esc-1,1-Nov-2005,,,,,,,,,,,,,,,,,,,,,,,,,,
OZ14647,Escallonia pulverulenta (Ruiz & Pav.) Pers. var. glabra Engler,Chile,Santiago,Santiago,"On the mountain Halcon de Piedra, Aculeo",,1000,-33.8113888888889,-71.0116666666667,O. Zöllner,14647,9-Dec-1987,,1,,,,,,,,,,,,,,,,,,,,,,,,
PA33377,Escallonia pulverulenta (Ruiz & Pav.) Pers. var. glabra Engler,Chile,Maule,Curico,"Los Quenes, Cañon rio Teno",,1100,-35.0111111111111,-70.7963888888889,P. Aravena,33377,,Leaves shiny and sticky.  N.V. Corontillo,1,,,,1,,,,,,,,,,,,,,,,,,,,
AC570,Escallonia pulverulenta (Ruiz & Pav.) Pers. var. pulverulenta ,Chile,Valparaiso,Los Molles,Ruta Panamericana # 5,,50,-32.2166666666667,-71.5,A.A. Cocucci,570,11-Dec-1994,,,,,,,,,,,,,,,1,,,,,,,,,,,
FM9730,Escallonia pulverulenta (Ruiz & Pav.) Pers. var. pulverulenta ,Chile,Biobio,Concepción,"8km north of Lirquen, then 5 km east along a dirt road","Shrub vegetation, edge of unused road",300,-36.7244444444444,-72.9086111111111,F.G. Meyer,9730,3-Jan-1966,"Evergreen shrub 6-10 ft. tall, forming a spreading crown and open branched; infl. Erect; fls. White, slightly fragrant.",1,,,,1,,,,1,,,,,,,,,,,,,,,,
GK408,Escallonia pulverulenta (Ruiz & Pav.) Pers. var. pulverulenta ,Chile,Biobio,Los Angeles,Mininco,,200,-37.8238888888889,-72.495,G. Kunkel,408,4-Dec-1952,,,1,,,,,,,,,,,,,,,,,,,,,,,
J1973,Escallonia pulverulenta (Ruiz & Pav.) Pers. var. pulverulenta ,Chile,Araucania,Temuco,Budi,,100,-38.8730555555556,-73.1666666666667,Bro. Claude-Joseph,,1-Jan-1923,,,,,1,,,,,,,,,,,,,,,,,,,,,
JM16716,Escallonia pulverulenta (Ruiz & Pav.) Pers. var. pulverulenta ,Chile,Valparaiso,Valparaiso,"Quebrada Verde, 5km from Valparaiso on road to Quebrada Verde",Ravines and mositer hillsides,290,-33.0705555555556,-71.6336111111111,J.L. Morrison,16716,5-Dec-1938,"Tree or shrub 4 m, flowers white, vert odoriferous",1,,,,1,,1,,1,,,,,,,,,,,,,,,,
JW4987,Escallonia pulverulenta (Ruiz & Pav.) Pers. var. pulverulenta ,Chile,Biobio,Concepción,Hills north of Concepción,Wooded slopes in mixture with other shrubs,130,-36.7836111111111,-73.0025,J. West,4987,3-Jan-1936,Shrub 3-4 m high; white flower,1,,,,1,,,,,,,,,,,,,,,,,,,,
MD4951,Escallonia pulverulenta (Ruiz & Pav.) Pers. var. pulverulenta ,Chile,Valparaiso,Petorca,ca. 38 km S of Los Vilos along Panamerican Hwy (#5); ca. 4 km S of border with Region IV & V.,Semi-arid matorral grassland,50,-32.25,-71.5333333333333,"M.O. Dillon, J.T.S. Teillier",4951,28-Nov-1987,Shrub to 3 m; flws. White.,1,,,1,,,,,,,,,,,,,,,,,,,,,
MR2,Escallonia pulverulenta (Ruiz & Pav.) Pers. var. pulverulenta ,Chile,Santiago,Santiago,,,500,-33.6080555555556,-71.3344444444444,M.C. Richter,2,31-Oct-1912,N.V. Corontillo,,1,,1,1,,,,,1,,,,,,,,,,,,,,,
AJ1598,Escallonia millegrana Griseb.,Bolivia,Santa Cruz,Cordillera,Cuevo adentro de la Sierra cerca la planchad antigua de Chevron,Bosque seco serrano de Anadenanthera/Schinopsis que col. Con campos abiertos,1385,-18.3333333333333,-64.4833333333333,"A. Jardim, N. Rosas-Hurtado",1598,22-Jan-1995,"Arbol de 8 m, ramas escamosas, exfoliadas. Flores blancas con olor dulce.",1,1,,,,,,,,,,,,,,,,,,,,,,,
AS148,Escallonia millegrana Griseb.,Argentina,Salta,Santa Victoria,Los Toldos-Pueblo,,1850,-22.2980555555556,-64.6802777777778,"A. Slanis, P. Quiroga",148,1-Jan-2002,"Arbol 4 de m de altura, flores blancas",,,,,,,,,,,,,1,,,,,,,,,,,,
AS34715,Escallonia millegrana Griseb.,Argentina,Salta,Oran,"Cordillera Oriental, Sierra de Zenta. Entre Trancas y San Andrés",,2200,-23.0833333333333,-64.8666666666667,"A. Schinini, C. Saravia-Toledo, R. Neumann",34715,21-Apr-1998,Arbol de 5 m de alt.,,1,,,,,1,,,,,,,,1,,,,,,,,,,
FZ10398A,Escallonia millegrana Griseb.,Bolivia,Tarija,Tarija,"Ruta 11 de Tarija a Entre Ríos, 47 km de Tarija",Ladera,2360,-21.4413888888889,-64.3841666666667,"F. Zuloaga, L. Aagesen, S. Sede, F. Zapata",10398A,24-Feb-2008,"Flor blanca, muy abundante.  Fotos del ambiente",1,,,,,,,,,,,,,,,,,,,,,1,,,
FZ289,Escallonia millegrana Griseb.,Bolivia,Cochabamba,Mizque,Alrededores puente río Curi,"Bosque seco, suelo arenoso, en la parte mas escarpada bajando hacia el cañón del río Curi.  Crece en simpatría total con Escallonia schreiteri.",2756,-17.8431666666667,-65.4608611111111,"F. Zapata, F. Huanca",289,25-Jul-2007,"Arbol 3 m, deciduo y en proceso de perder las hojas; madera vieja con espinas; hojas amarillas; frutos viejos.  En general hay pocos individuos en la zona, casi todos sin hojas y algunas en zonas de muy difícill acceso en la parte profunda del cañón.",1,,,,,,,,,,,,,,,,,,,,,,,,
FZ290,Escallonia millegrana Griseb.,Bolivia,Cochabamba,Mizque,Alrededores puente río Curi,"Bosque seco, suelo arenoso, en la parte mas escarpada bajando hacia el cañón del río Curi.  Crece en simpatría total con Escallonia schreiteri.",2756,-17.8436111111111,-65.4611111111111,"F. Zapata, F. Huanca",290,25-Jul-2007,"Arbol 3 m, poco ramificado, algunos brotes jóvenes con madera rojiza, madera vieja con espinas.",1,,,,,,,,,,,,,,,,,,,,,,,,
FZ291,Escallonia millegrana Griseb.,Bolivia,Cochabamba,Mizque,"Pasando el puente del río Curi, hacia Mizque","Bosque seco, suelo arenoso, en la parte mas escarpada bajando hacia el cañón del río Curi.",2752,-17.8464166666667,-65.45675,"F. Zapata, F. Huanca",291,25-Jul-2007,"Arbol 5 m, muy ramificado, con brotes jóvenes; madera vieja con epinas.",1,,,,,,,,,,,,,,,,,,,,,,,,
FZ311,Escallonia millegrana Griseb.,Bolivia,Cochabamba,Carrasco,"Pojo, ca. 2 km del poblado de la Habana hacia Cochabamba","Laderas secas subiendo de La Habana a Llutu-Pampa. Suelo arenoso, rojizo, seco. Creciendo con Jacaranda y Schinus",2663,-17.7454166666667,-64.9331111111111,"F. Zapata, F. Huanca",311,28-Jul-2007,"Arbol 3.5 m, muy común, madera jóven rojiza, con espinas.  Este es el único individuo que encontre en este lugar con hojas relativamente verdes, los demás individuos ya habían perdido todas las hojas.",1,,,,,,,,,,,,,,,,,,,,,,,,
IV108,Escallonia millegrana Griseb.,Bolivia,Santa Cruz,Vallegrande,"Quina-Quina, 8 km al noroeste de Vallegrande",,1900,-18.4166666666667,-64.1166666666667,I.G. Vargas,108,8-Feb-1989,Arbusto de 5 m de alto de poca ramificación.  Tallo café con espinas negras. Hojas ásperas.  Inflorescencias axiales y terminales con flores blancas muy fragantes visitadas por muchas abejas y otros insectos. N.V. quebra olla,1,1,,,,,,,,,,,,,,,,,,,,,,,
IV940,Escallonia millegrana Griseb.,Bolivia,Santa Cruz,Vallegrande,"Huascañada, 5 km al S de Vallegrande",,2050,-18.5180555555556,-64.0855555555555,I.G. Vargas,940,10-Feb-1991,"Arbol de 6 m de altura; tallo café aspero, decorticans con espinas pequeñas, 8 cm de diámetro.  Inflorescencias terminales blancas muy fraganciosa, visitadas por abejas",1,1,,,,,,,,,,,,,,,,,,,,,,,
JG492,Escallonia millegrana Griseb.,Bolivia,Chuquisaca,Sud Cinti,"Puca Pampa, Aproximadamente a 5 km de Puesto ganadero, en la parte NW del Rio Alborniyoj.","Bosque Boliviano-Tucumano, rico en Podocarpaceas, Poaceas, Cyperaceas, Pterydofitos y Musgos.  Bajando hacia el rio Alborniyoj, suelo arenoso café-negro con bastante materia orgánica",1850,-20.7333333333333,-64.5,"J. Gutierrez, H., Huaylla, A. Lliully, R. León, I. Guachalla, E. Portal",492,8-Feb-2004,"Arbolito de 4 m de altura.  Flores aromáticas, corola blanca dispuestas en una panoja, flamentos balncos, tecas amarillas 4 gineceo 1",1,,,,,,,,,,,,,,,,,,,,,,,,
JS10229,Escallonia millegrana Griseb.,Bolivia,Tarija,Arce,"39.9 km S of jct of road to Entre Rios, on road to Padcaya.","Isolated pocket of Podocarpus forest with dry, open thorn-scrub (Acacia, Prosopis) below",2000,-21.9,-64.6833333333333,J.C. Solomon,10229,29-Apr-1983,"Small tree, 4 m",1,1,,,,,,,,,,,,,,,,,,,,,,,
JS10315,Escallonia millegrana Griseb.,Bolivia,Tarija,Cercado,"54.9 km E of Tarija-Padcaya road, on road to Entre Rios. Moist shrubby vegetation. Heavily disturbed.",,2050,-21.4833333333333,-64.3333333333333,J.C. Solomon,10315,1-May-1983,"Shrub, 3 m.",1,1,,,,,,,,,,,,,,,,,,,,,,,
JS17904,Escallonia millegrana Griseb.,Bolivia,Cochabamba,Carrasco,5 km al E del puente sobre el río Copachuncho por el camino entre Cochabamba y Santa Cruz.,"Zona arbustiva, semi-árida con algunos árboles (6-8 m) aislados.",2950,-17.7,-64.8666666666667,"J.C. Solomon, M. Nee",17904,5-Mar-1988,Arbusto 2.5 m,1,1,,,,,,,,,,,,,,,,,,,,,,,
JW11737,Escallonia millegrana Griseb.,Bolivia,Cochabamba,Campero,c. 10-15 km from Pena Colorada towards Aiquile,"Steep hillsides covered in dense bushland, seasonally quite dry.  On a steep scrubby bank",2000,-18.2033333333333,-64.9777777777778,J.R.I. Wood,11737,2-Feb-1997,"Small tree, 3-4 m high.  Leaves: dull green. Flowers: white",,,,,,,,,1,,,,,,,,,,,,,,,,
JW8314,Escallonia millegrana Griseb.,Bolivia,Tarija,Tarija,"Rincón de la Victoria, 15 km southwest of Tarija","Dry, brush-grown slopes.  Characterisit of drier slopes rising above Podocarpus woods in lower part of this sheltered valley.",2100,-21.8844444444444,-64.9027777777778,J. West,8314,10-Feb-1937,"Shrub to ca. 3 m, flowers cream-white",1,,,,1,,1,,,,,,,,,,,,,,,,,,
JW8984,Escallonia millegrana Griseb.,Bolivia,Chuquisaca,Sucre,c. 15 km from Sucre on road to Cochabamba,In a scrub-filled gully on a steep rocky hillside with sparse scrub,2500,-18.8472222222222,-65.2211111111111,J.R.I. Wood,8984,16-Dec-1994,Spiny shrub c 2 m high.  Petals white.,,,,,,,,,1,,,,,,,,,,,,,,,,
MS7323,Escallonia millegrana Griseb.,Bolivia,Tarija,O'Connor,"Entre Ríos, Reserva Nacional de Flora y Fauna Tariquía",Trayecto entre Entre Ríos-camino a Narváez.  Pared húmeda proximo a una quebrada.  Abunda Begonia boliviensis en floración.  EN suelos mas estables arbustos 1-2 m y arbolitos dispersos de Escalloni millegrana,1696,-21.7583333333333,-64.3058333333333,"M. Serrano, A. Liully, J. Villalobos",7323,28-Jan-2006,"Arbolito 4 m, flores blancas",1,,,,,,,,,,,,,,,,,,,,,,,,
RK3415,Escallonia millegrana Griseb.,Argentina,Jujuy,Capital,Cno. Al Cucho,,1350,-24.1666666666667,-65.2333333333333,"R. Kiesling, O. Ahumada, A.G. Lopez, A.D. Rotman",3415,7-Mar-1982,"Arbusto 3 m, flores color crema.",,1,,,,,,,,,,,,,,,,,,,,,,,
RR71,Escallonia millegrana Griseb.,Bolivia,Chuquisaca,Zudañez,"Rio Grande, Huito-Hueto",Suelos fértiles con alto contenido de materia orgánica,1228,-18.55,-64.6333333333333,"R. Coca, B. Padilla",71,29-Mar-1999,,1,,,,,,,,,,,,,,,,,,,,,,,,
WE25045,Escallonia millegrana Griseb.,Bolivia,Cochabamba,Mizque,About 3 km southwest of Vilavila,Among rocks near top of the mountain,2700,-17.9833333333333,-65.6,W.J. Eyerdam,25045,24-Mar-1939,"Fl. White. Hardwood tree with shrot spines on some of the small brnaches, rogh string bark.  Scattered",,,1,,1,,1,,1,,,,,,,,,,,,,,,,
AG22671,Escallonia micrantha Mattf.,Perú,Piura,Olmos,"46-48 km E of Olmos on road to Pucara, just W of top of Abra de Porculla","Lower montane dry forest, roadside",2000,-5.81666666666667,-79.5166666666667,"A. Gentry, M. Dillon, J. Aronson, C. Diaz",22671,10-Jun-1978,"Small tree 4 m, flowers white",1,1,1,,,,,,,,,,,,,,,,,,,,,,
AS15247,Escallonia micrantha Mattf.,Perú,Cajamarca,Contumaza,Cascas-El Chorrillo,Ladera,2100,-7.46833333333333,-78.7783333333333,"A. Sagastegui, S.Leiva, P.Lezama",15247,14-May-1994,Arbol con flores blancas,1,1,1,,,,,,,,,,,,,,,,,,,,,,
AS8791,Escallonia micrantha Mattf.,Perú,Cajamarca,San Miguel,Entre Lives y Payac,Ladera,1850,-7.08444444444444,-79.0452777777778,"A. Sagastegui, E. Alvitez, J. Mostacero",8791,11-May-1977,"Arbol con flores blancas, pequeñas.  Madera muy dura.",1,1,1,,,,,,,,,,,,,,,,,,,,,,
AS9297,Escallonia micrantha Mattf.,Perú,Cajamarca,Contumaza,La Montaña (Guzmango-Contumaza),Ladera,2500,-7.38083333333333,-78.8955555555556,"A. Sagastegui, E. Alvitez, J. Mostacero",9297,18-May-1979,Arbol  con flores blancas. N.V. Chachacomo,1,1,1,,,,,,,,,,,,,,,,,,,,,,
BK493,Escallonia micrantha Mattf.,Ecuador,Loja,Cariamanga,"Road Cariamanga-Sozoranga, km 8","Roadside scrub, mxed with pasture",1900,-4.68333333333333,-79.7166666666667,"B.B. Klitgaard, P. Lozano, T. Delgado, H. Aleyandro",493,13-Apr-1997,Tree to 4 m.  Petals white with rosa-coloured spots.  Very strongly and pleaseantly scented.  Locally common.  All individuals in flower.,1,,,,,,,,,,,,,,,,,,,,,,,,
FZ241,Escallonia micrantha Mattf.,Perú,Cajamarca,San Miguel,Carretera de Lives a Payac (ca. 3km de Lives),Bosque seco muy intrervenido; suelo húmedo.,2124,-7.07458333333333,-79.0510555555555,"F. Zapata, I. Sánchez, P. Puppo",241,28-Jun-2007,"Arbol 4 m, corteza rojiza desprendible en capas (como Myrtaceae), arquitectura tipo piramidal; hojas con hongos (manchas negras) o en proceso de secar; flores viejas; frutos secos viejos.  El árbol desde lejos se parece un poco a un arbol de mango pequeño.",1,,,,,,,,,,,,,,,,,,,,,,,,
FZ242,Escallonia micrantha Mattf.,Perú,Cajamarca,San Miguel,Carretera de Lives a Payac (ca. 3km de Lives),Bosque seco muy intrervenido; suelo húmedo.,2124,-7.07461111111111,-79.0510833333333,"F. Zapata, I. Sánchez, P. Puppo",242,28-Jun-2007,"Arbol 3 m, corteza rojiza desprendible en capas (como Myrtaceae), arquitectura tipo piramidal; hojas con hongos (manchas negras) o en proceso de secar; flores viejas; frutos secos viejos.  El árbol desde lejos se parece un poco a un arbol de mango pequeño.",1,,,,,,,,,,,,,,,,,,,,,,,,
FZ243,Escallonia micrantha Mattf.,Perú,Cajamarca,San Miguel,Carretera de Lives a Payac (ca. 3.5km de Lives),Bosque seco muy intrervenido; suelo húmedo.,2118,-7.07211111111111,-79.0483055555556,"F. Zapata, I. Sánchez, P. Puppo",243,28-Jun-2007,"Arbol 5 m, corteza rojiza desprendible en capas (como Myrtaceae), arquitectura tipo piramidal; hojas con hongos (manchas negras) o en proceso de secar; flores viejas; frutos secos viejos.  El árbol desde lejos se parece un poco a un arbol de mango pequeño.",1,,,,,,,,,,,,,,,,,,,,,,,,
FZ245A,Escallonia micrantha Mattf.,Perú,Cajamarca,San Miguel,Carretera de Lives a Payac (ca. 3.5km de Lives),Bosque seco muy intrervenido; suelo húmedo.,2118,-7.07222222222222,-79.0483333333333,"F. Zapata, I. Sánchez, P. Puppo",245A,28-Jun-2007,"Arbol 3 m, corteza rojiza desprendible en capas (como Myrtaceae), arquitectura tipo piramidal; hojas con hongos (manchas negras) o en proceso de secar; flores viejas; frutos secos viejos.  El árbol desde lejos se parece un poco a un arbol de mango pequeño.",1,,,,,,,,,,,,,,,,,,,,,,,,
MD6482,Escallonia micrantha Mattf.,Perú,La Libertad,Otuzco,"Near Chorirro, between Cascas and Contumazá",,1900,-7.41666666666667,-78.7166666666667,"M.O. Dillon, A. Sagastegui, S. Leiva, P. Lezama, P Chuno",6482,17-May-1993,Shrubs to 8 m; flowers white,,,1,,,,,,,,,,,,,,,,,,,,,,
PJ98,Escallonia micrantha Mattf.,Ecuador,Loja,Cerro de Celica,"Celica-Guachanam·, 6-7.5 km",Roadside hedges and pastures.,2400,-4.09166666666667,-79.9333333333333,"P.M. Jørgensen, C. Ulloa, H. Vargas & G. Abendaño",98,12-Apr-1994,Tree 3-6 m. Flowers pink. Pleasant sweet smell.,1,1,,,,,,,,,,,,,,,,,,,,,,,
EN7235,Escallonia serrata Sm.,Argentina,Tierra del Fuego,Isla de los Estados,Puerto Vancouver,,60,-54.7833333333333,-64.0833333333333,"E.G. Nicora, S. Crespo, E. Ancibar",7235,28-Nov-1967,"Arbusto de 2 m de altura aproximadamente, debajo de Nothofagus, flor blanca a orillas del mar; abundante",,,,,,,,1,,,,,,,,,,,,,,,,,
EP3057,Escallonia serrata Sm.,Chile,Tierra del Fuego,Fiordo Parry,Bahia Cuevas,En lugares húmedos y sombríos a orillas de turbales,150,-53.1833333333333,-72.1,E. Pisano,3057,18-Feb-1971,Escaso,,,,,,,1,,,,,,,,,,,,,,,,,,
EP5372,Escallonia serrata Sm.,Chile,Tierra del Fuego,Isla Grevy,"Arch. Cabo de Hornos Rada Norte, Ba. Gretten","Matorral costero, sobre rocas.",10,-55.5383333333333,-67.6141666666667,E. Pisano,5372,15-Jan-1982,,,,,,,,1,,,,,,,,,,,,,,,,,,
FB487,Escallonia serrata Sm.,Argentina,Tierra del Fuego,Isla de los Estados,"Puerto Parry, zona de la costa izquierda del puesto de la Armada",En escalón encima de la marea hasta el interior del bosque de guindo,20,-54.7666666666667,-64.3666666666667,F. Biganzoli,487,22-Nov-1998,"Arbusto 2 m, flores blancas, ovario morado, estilo verde.",1,,,,,,,,,,,,,,,,,,,,,,,,
FR5437,Escallonia serrata Sm.,Chile,Magallanes,Ultima Esperanza,"Puerto Bella Vista, Cerro Transecta",,170,-52.375,-71.2969444444444,"F. Roig, O. Dollenz, E. Mendez",5437,10-Dec-1979,Flor blanca rosada,,,,,,,,,,,,,,,1,,,,,,,,,,
GP28629,Escallonia serrata Sm.,Chile,Magallanes,Isla Hornos,,,30,-55.9666666666667,-67.2166666666667,G.T. Prance,28629,14-Dec-1983,"Shrub 1 m, petals white",1,1,,,,,,,1,,,,,,,,,,,,,,,,
GP28668,Escallonia serrata Sm.,Chile,Tierra del Fuego,Isla Georgiana,Brecknoch channel near Pta Ueth,,50,-54.6166666666667,-71.7333333333333,G.T. Prance,28668,15-Dec-1983,"Postrate shrub, petals white",1,1,,,,,,,,,,,,,,,,,,,,,,,
JBs.n.,Escallonia serrata Sm.,Argentina,Tierra del Fuego,,,,,,,J. Banks & D. Solander,s.n.,January-1769,,1,1,,1,,,1,,,,,,,,,,,,,,,,,,
KC1662A,Escallonia serrata Sm.,Argentina,Tierra del Fuego,About mdway between Estancia Heberton and Estancia Moat,"At ca. 70 km of mileage sing of RC-j, north of Canal Beagle",Top of hill,130,-54.9372222222222,-66.9283333333333,"K.F. Chung, C.L. Wu",1662A,8-Dec-2005,"Small shrub on top of the hill, more than 20 plants found, peak anthesis, flowers white",1,,,,,,,,,,,,,,,,,,,,,,,,
KC1662C,Escallonia serrata Sm.,Argentina,Tierra del Fuego,About midway between Estancia Heberton and Estancia Moat,"At ca. 70 km of mileage sing of RC-j, north of Canal Beagle",Top of hill,130,-54.9372222222222,-66.9283333333333,"K.F. Chung, C.L. Wu",1662C,8-Dec-2005,"Small shrub on the top of the hill, more than 20 plants found, peak anthesis, flowers white",1,,,,,,,,,,,,,,,,,,,,,,,,
KF165,Escallonia serrata Sm.,Chile,Magallanes,Capitán Aracena,Ba. Morri,"Coast. In wet areas with Pernettya mucronata, Nothofagus betuloides, Philesia magellanica",5,-54.2333333333333,-71.025,K.E. Freas,165,9-Feb-1983,Shrub to 1 m tall. Flowers white.,,,1,,,,,,,,,,,,,,,,,,,,,,
LLs.n.,Escallonia serrata Sm.,Chile,Magallanes,Ultima Esperanza,"Strait of Magallanes, Port Churruca",,100,-53.3361111111111,-73.85,L.A. Lee,s.n.,2-Feb-1888,,,,,1,,,,,,,,,,,,,,,,,,,,,
MG81,Escallonia serrata Sm.,Argentina,Tierra del Fuego,Canal Beagle,Puerto Remolino,,5,-54.8613888888889,-67.87,M. Gusinde,81,1-Mar-1922,,1,,,,,,,1,1,,,,,,,,,,,,,,,,
NG1065,Escallonia serrata Sm.,Argentina,Tierra del Fuego,No Top Mountain,Poste Fierro,"At base of mountain, sea level, on rocks over beach.",5,-54.8333333333333,-67.3333333333333,R.N.P. Goodall,1065,15-Dec-1967,In bud and blossoms,,,,1,1,,,,,1,,,,,,,,,,,,,,,
PD712,Escallonia serrata Sm.,Chile,Tierra del Fuego,Isla Desolación,,,100,-53.25,-73.8333333333333,P. Dusén,s.n.,1-Aug-1896,,1,,,,,,,,,,,,,1,,,,,,,,,,,
RC1866,Escallonia serrata Sm.,Chile,Magallanes,Ultima Esperanza,"Strait of Magallanes, Playa Parda cove, north side",,40,-53.3166666666667,-73,R.O. Cunningham,1866-69,1-Mar-1866,,,,,,,,1,,,,,,,,,,,,,,,,,,
RL1738,Escallonia serrata Sm.,Argentina,Tierra del Fuego,Puerto Remolino,,,400,-54.8466666666667,-67.8625,R.L.H.,1738,11-Mar-1950,"En alturas, flores blanco-amarillentas",,,,,,,,,,,,,,1,,,,,,,,,,,
TB2876,Escallonia serrata Sm.,Chile,Magallanes,Ultima Esperanza,"Peninsula Roca, Seno Resi, lado S","Matorral costero, sitios húmedos y claros",50,-51.85,-73.0333333333333,T.B.P.A.,2876,24-Jan-1978,Comun,,,,,,,,1,,,,,,,,,,,,,,,,,
TD1622,Escallonia serrata Sm.,Argentina,Tierra del Fuego,Isla de los Estados,"Bahia San Antonio, Puerto Hoppner","Along streamlets at sea level running through very short, mixed Drimys-Nothofagus forst [this forest on the northwestern headland's coast at this season is much drier and has much more limited bryophyte flora on forest floor than forests on the southern coast] at Punta Austin, extremely narrow entrance and headland on westerly side of Puerto Hoppner and Bahi San Antonio; exposure easterly",45,-54.7333333333333,-64.4166666666667,"T.R. Dudley, R.N.P. Goodall, G. Crow",1622,8-Nov-1971,"Slender, weak stemmed shrub with few branches, up to 5 ft tall [always densely branched and wind-gnarled when is open sites]",1,,,,,,,,,,,,,,,,,,,,,,,,
WB1493,Escallonia serrata Sm.,Chile,Magallanes,Isla Diego de Almagro,,,50,-51.5,-75.3333333333333,W. Biese,1493,28-Mar-1945,Arbusto 0.7 m.,,,,,,,1,,,,,,1,,,,,,,,,,,,
DS4998,Escallonia polifolia Hook.,Perú,Amazonas,Chachapoyas,"Chachapoyas-Cajamarca road, between Leimebamba and Calla-Calla, 12-15km from Leimebamba","Mosaic of low shrub fields and meadows, moist and paramo-like.",3000,-6.75,-77.8,D.N. Smith & S. Vasquez,4998,4-Sep-1983,Shrub 1.3m; calyx green.,1,,,,,,,,,,,,,,,,,,,,,,,,
FZ223,Escallonia polifolia Hook.,Perú,Amazonas,Balsas,Bajando de Cerro Calla-Calla hacia Leimebamba,En relicto de bosque de Ericaceae.  Zona extramadamente intervenida y los alrededores modificados a cultivos!!  Suelo complatamente anegado dominado por Chusquea sp.  Tal vez una de las únicas poblaciones de E. polifolia que quedan (ca. 10 individuos).  No se encontraron más poblaciones en la zona.,3170,-6.71277777777778,-77.8536111111111,"F. Zapata, P. Puppo",223,26-Jun-2007,"Arbusto 1.8 m ramificado desde la base, madera rojiza; hojas jóvenes moradas, hojas maduras completamente pubescentes (blanco); flores de pétalos blancos.",1,,,,,,,,,,,,,,,,,,,,,,,,
FZ224,Escallonia polifolia Hook.,Perú,Amazonas,Balsas,Bajando de Cerro Calla-Calla hacia Leimebamba,En relicto de bosque de Ericaceae.  Zona extramadamente intervenida y los alrededores modificados a cultivos!!  Suelo complatamente anegado dominado por Chusquea sp.  Tal vez una de las únicas poblaciones de E. polifolia que quedan (ca. 10 individuos).  No se encontraron más poblaciones en la zona.,3170,-6.71305555555556,-77.8527777777778,"F. Zapata, P. Puppo",224,26-Jun-2007,"Arbusto 1.8 m ramificado desde la base, madera rojiza; hojas jóvenes moradas, hojas maduras completamente pubescentes (blanco); flores de pétalos blancos.",1,,,,,,,,,,,,,,,,,,,,,,,,
FZ225,Escallonia polifolia Hook.,Perú,Amazonas,Balsas,Bajando de Cerro Calla-Calla hacia Leimebamba,En relicto de bosque de Ericaceae.  Zona extramadamente intervenida y los alrededores modificados a cultivos!!  Suelo complatamente anegado dominado por Chusquea sp.  Tal vez una de las únicas poblaciones de E. polifolia que quedan (ca. 10 individuos).  No se encontraron más poblaciones en la zona.,3170,-6.71333333333333,-77.8536111111111,"F. Zapata, P. Puppo",225,26-Jun-2007,"Arbusto 1.8 m ramificado desde la base, madera rojiza; hojas jóvenes moradas, hojas maduras completamente pubescentes (blanco); flores de pétalos blancos.",1,,,,,,,,,,,,,,,,,,,,,,,,
FZ226,Escallonia polifolia Hook.,Perú,Amazonas,Balsas,Bajando de Cerro Calla-Calla hacia Leimebamba,En relicto de bosque de Ericaceae.  Zona extramadamente intervenida y los alrededores modificados a cultivos!!  Suelo complatamente anegado dominado por Chusquea sp.  Tal vez una de las únicas poblaciones de E. polifolia que quedan (ca. 10 individuos).  No se encontraron más poblaciones en la zona.,3170,-6.71305555555556,-77.8533333333333,"F. Zapata, P. Puppo",226,26-Jun-2007,"Arbusto 1.8 m ramificado desde la base, madera rojiza; hojas jóvenes moradas, hojas maduras completamente pubescentes (blanco); flores de pétalos blancos.",1,,,,,,,,,,,,,,,,,,,,,,,,
JB1810,Escallonia polifolia Hook.,Perú,Amazonas,Chachapoyas,Balsas-Leimebamba road km 416,Grassland with shrubs,3500,-6.74166666666667,-77.8733333333333,J.D. Boeke,1810,28-May-1977,Shrub ca. 3m; flowers green,1,1,,,,,,,,,,,,,,,,,,,,,,,
JL11384,Escallonia polifolia Hook.,Perú,Amazonas,Chachapoyas,18 km SW Leimabamba along road towards Balsas,White sand slope along road,3000,-6.75,-77.8,J.L. Luteyn & E. Cotton,11384,13-Feb-1985,Shrub to 2 m tall. Petals pale green. Common,1,1,,,,,,,,,,,,,,,,,,,,,,,
JL5574,Escallonia polifolia Hook.,Perú,Amazonas,Chachapoyas,"Leimebamba-Balsas road, kms 412-421.",Disturbed steep roadside slopes,2900,-6.74972222222222,-77.7719444444444,J.L. Luteyn & M. Lebron-Luteyn,5574,14-Mar-1978,Shrub to 2 m tall. Calyx and corolla pale green. One plant seen,1,1,1,,,,1,1,1,,,,,,,,,,,,,,,,
PH5511,Escallonia polifolia Hook.,Perú,Amazonas,Chachapoyas,"Cerros Calla Calla, East side, 19 km obove Leimebamba on the road to Balsas",,3100,-6.71194444444444,-77.7566666666667,P.C. Hutchinson & J.K. Wright,5511,4-Jun-1964,Tree or shrub 1-4 m. Hanging green campunuloid flowers. Plentiful,1,1,1,,1,,,,1,,,,,,,,,,,,,,,,
AM8010,Escallonia myrtilloides L.f.,Perú,Pasco,Oxapampa,"Huancabamba, Sector Santa Barbara, Parque Nacional Yanachaga-Chemillén","Relicto de bosque montano muy húmedo, con parches de pajonales",3250,-10.2,-75.3833333333333,"A. Monteagudo, R. Francis",8010,29-Jan-2005,"Arbol hasta 3 m, flores verdes",1,,,,,,,,,,,,,,,,,,,,,,,,
BO8614,Escallonia myrtilloides L.f.,Ecuador,Imbabura,,"Road Ibarra-Mariana Acosta, at pass (on Hda. Cruz)",Sloping bunch grass páramo,3700,0.333333333333333,-78,"B. Ollgaard, H. Balslev",8614,9-Aug-1976,1 m high densely brnached shrub,1,1,1,,,,,,,,,,,,,,,,,,,,,,
CU1445,Escallonia myrtilloides L.f.,Ecuador,Azuay,,Carretera San Gerardo-Qumsacocha,Restos de vegetación alto-andina,3319,-3.105,-79.2172222222222,"C. Ulloa, D. Fernández, S. Sheth, I. Jiménez",1445,11-Jan-2008,"Arbusto 80 cm, frutos viejos café oscuros",1,,,,,,,,,,,,,,,,,,,,,,,,
CU1449,Escallonia myrtilloides L.f.,Ecuador,Azuay,,"Carretera Gualaceo-Macas, km 10 al borde del carretero",Remanente de bosque arbustivo,2926,-2.93722222222222,-78.7116666666667,"C. Ulloa, D. Fernández, S. Sheth, I. Jiménez",1449,12-Jan-2008,"Arbusto 4 m, flores verde claras, madera amarillo anaranjada, hojas con envés glauco",1,,,,,,,,,,,,,,,,,,,,,,,,
FG3239,Escallonia myrtilloides L.f.,Colombia,Boyacá,Arcabuco,Alto de Sote,Bosques de subpáramo,3000,5.65,-73.3166666666667,F. Gonzalez,3239,25-Dec-1994,"Arbusto hasta de 4 m alto, achaparrado. Ramas jóvenes color morado. Sépalos verde claro, pétalos blanco-amarillentos con el ápice verde",,1,,,,,,,,,,,,,,,,,,,,,,,
FZ177,Escallonia myrtilloides L.f.,Perú,Cusco,Urubamba,"Rumbo a Abra de Málaga, sector Tastayoc.","Bosque de Escallonia a lo largo del camino, en depresiones húmedas, suelo rocoso húmedo. Con Brachyotum, Acaena",3727,-13.1575,-72.2777777777778,"F. Zapata, E. Suclli, P. Puppo",177,15-Jun-2007,"Arbusto 3 m, muy ramificado, madera jóven rojiza, flores viejas, cáliz verde oscuro",1,,,,,,,,,,,,,,,,,,,,,,,,
FZ193,Escallonia myrtilloides L.f.,Perú,Cusco,Paucartambo,"Carretera a Kosñipata, muy cerca a Janaco","Parte baja de bosqe de niebla, suelo rocoso. Crece con Monina, Miconia, Clethra, Gynoxis (?), Myrsine andina",3445,-13.2011111111111,-71.6408333333333,"F. Zapata, E. Suclli, L. Valenzuela, P. Puppo",193,19-Jun-2007,"Arbusto 2 m, poco ramificado, hojas glandulares, hojas jóvenes rojizas, pétalos verdes",1,,,,,,,,,,,,,,,,,,,,,,,,
FZ197,Escallonia myrtilloides L.f.,Perú,Cusco,Paucartambo,"Carretera a Kosñipata, muy cerca a Janaco","Bosue de niebla, suelo muy húmedo. Creciendo con Vaccinium, Monina, Tibouchina, Michonia, Baccharis, Saracha",3490,-13.1994444444444,-71.6247222222222,"F. Zapata, E. Suclli, L. Valenzuela, P. Puppo",197,19-Jun-2007,"Arbusto 2 m, común a esta altura; hokas glandulares",1,,,,,,,,,,,,,,,,,,,,,,,,
FZ213,Escallonia myrtilloides L.f.,Perú,Amazonas,Balsas,"Cerros Calla-Calla, carretera Balsas-Leimebamba","Bosque de niebla, suelo muy húmedo cuierto por briófitos. Creciendo con Weinmannia, Hypericum, Monina, Ericaceae",3398,-6.75944444444444,-77.8897222222222,"F. Zapata, P. Puppo",213,26-Jun-2007,"Arbusto 2 m, madera joven rojiza, muy ramificado; botnoes florales blancos y flores con pétalos blancos y tintes rosados",1,,,,,,,,,,,,,,,,,,,,,,,,
FZ219,Escallonia myrtilloides L.f.,Perú,Amazonas,Balsas,"Cerros Calla-Calla, carretera Balsas-Leimebamba","En bosque en medio de Jalca, suelo muy húmedo con musgos.  Con Berberis, Asteraceae, Ericaceae",3600,-6.74444444444444,-77.8805555555555,"F. Zapata, P. Puppo",219,26-Jun-2007,"Arbusto 50 cm, achaparrado (parece un bonsai!); hojas coriaceas; muchas flores viejas de ovario rojizo; frutos pasados",1,,,,,,,,,,,,,,,,,,,,,,,,
FZ252,Escallonia myrtilloides L.f.,Perú,Piura,Huancabamba,"Canchque, carretera de Canchaque a Huancabamba (ca. 20 km).","Bosque de niebla relicto. Con E. paniculata, Lupinus, Lamiaceae, Asteraceae",2351,-5.38,-79.5572222222222,"F. Zapata, P. Puppo",252,3-Jul-2007,"Arbusto 2.5 m, muy ramificado desde la base, con líquenes y briófitos en todas las ramas; flores viejas",1,,,,,,,,,,,,,,,,,,,,,,,,
FZ275,Escallonia myrtilloides L.f.,Bolivia,Cochabamba,Mizque,"Carretera Mizque, Totora-kasa",En pequeño parche de E. myrtilloides en medio de pastizal seco Con Puya sp. Cortaderia sp (?),3676,-17.7375,-65.5147222222222,"F.Zapata, F. Huanca",275,25-Jul-2007,"Arbusto 3 m, muy ramificado, flores blancas",1,,,,,,,,,,,,,,,,,,,,,,,,
FZ318,Escallonia myrtilloides L.f.,Bolivia,La Paz,Murillo,Rumbo a Valle del Zongo,"Páramo Yungueño con gran dominancia de Poacee, Juncaceae (en turberas y bofedales) y Buddleja, Achyrochline, Muehelnbergia, Acaena.  Suelo rocoso seco, pers un cañón donde se concentra la humedad. Vegetación general a páramoo típico pero son Espeletia",3830,-16.1980555555556,-68.1222222222222,"F. Zapata, T, Ortuño",318,31-Jul-2007,"Arbusto 3 m, muy ramificado, con bastnates reiteraciones, madera jóven rojiza; flores blancas",1,,,,,,,,,,,,,,,,,,,,,,,,
FZ328,Escallonia myrtilloides L.f.,Perú,Arequipa,Arequipa,Symbral,"Bosque seco, suelo arenoso. Creciendo en depresión húmeda por la cual en verano debe bajar una quebrada. Con Polylepis, Calceolaria, Poaceae",3827,-16.3894444444444,-71.4441666666667,F. Zapata,328,8-Aug-2007,"Arbol 2.5 m, flores blancas; muy escaso",1,,,,,,,,,,,,,,,,,,,,,,,,
FZ86,Escallonia myrtilloides L.f.,Colombia,Cundinamarca,Subachoque,Páramo El Tablazo,En la orilla de una quebrada,3197,5.00111111111111,-74.1830555555556,F. Zapata,86,17-Sep-2005,Arbusto 1.8 m; ramas jóvenes rojizas; márgenes de hojas rojizos; no flores; no frutos.,,,,,,,,,,,,,,,,,,,1,,,,,,
GD10288,Escallonia myrtilloides L.f.,Panama,Barú,Boquete,"East slope of Volcán Chiriquí, above Boquete",Along streamlet in oak forest,3100,8.80666666666667,-82.5361111111111,"G. Davidse, W.G. D’Arcy",10288,20-Nov-1975,Small tree,1,1,,,,,,,,,,,,,,,,,,,,,,,
GL3349,Escallonia myrtilloides L.f.,Ecuador,Loja,Loja,"Parque Nacional Podocarpus, Cajanuma, Mirador trail",loq bosque nublado and ericaceous scrub on ridge top,3000,-4.11111111111111,-79.1763888888889,G.P. Lewis,3349,18-Jun-1997,"Shrub to 1 m with main branching horizontal (parallel to ground), or treelet, 3m x 12 cm diam. with grey fissured bark; leaves semicoriaceous, dark green glossy above, much paler whitish green and slightly glossy below; calyces lime-green, petals creamish at base, green at apex, filaments white, anthers yellow, style creamish pale green, stigma green.  Locally frequent",1,,,,,,,,,,,,,,,,,,,,,,,,
HS3834,Escallonia myrtilloides L.f.,Argentina,Salta,Santa Victoria,Entre Abra Peña Negra y Abra San José,En aroyito sobre rocas,3550,-22.2833333333333,-64.8666666666667,H. Sleumer,3834,7-Feb-1953,"Arbusto hasta 2 m, flores blanquecinas. Hojas verde oscuro.  Solamente 2 especímenes fueron observados",,,,,,,,1,,,,,,,,,,,,,,,,,
IH8484,Escallonia myrtilloides L.f.,Perú,Cusco,Espinar,"Distrito Suyckutambo, carretera a Suyckutambo",Puna húmeda,3800,-14.6927777777778,-71.2825,I. Huamantupa,8484,14-Jan-2007,"Arbol 8 m, flores blancas",1,,,,,,,,,,,,,,,,,,,,,,,,
IS4874,Escallonia myrtilloides L.f.,Perú,Cajamarca,Cutervo,"La Pucarilla, entre Sócota y San Andrés.","Bosque perennifolio, muy deteriorado con epifitismo",2500,-6.26027777777778,-78.6980555555556,I. Sánchez-Vega,4874,24-Jun-1988,"Arbusto 3 m de alto, hojas espatuladas enteras, dentadas, flores solitarias, verdosas",,,1,,,,,,,,,,,,,,,,,,,,,,
JB42556,Escallonia myrtilloides L.f.,Ecuador,Imbabura,,Páramo de Cazco Valenzuela,Slightly disturbed Ceja Andina,3250,0.233333333333333,-78.1666666666667,J. Brandbyge,42556,8-Mar-1984,"Tree 6 m high, DBH 0.35 m, Petals pale greenish-white",1,1,,,,,,,,,,,,,,,,,,,,,,,
JB42865,Escallonia myrtilloides L.f.,Ecuador,Cotopaxi,,7 km from the point where the Ingapirca el Corazon road divides from Angamarca road,Upper Andean forest,3590,-1.11666666666667,-78.9166666666667,"J. Brandbyge, P.M. Jorgensen",42865,11-Nov-1984,"Tree 4 m high, flowers pale yellowish-green",1,1,,,,,,,,,,,,,,,,,,,,,,,
JC23138,Escallonia myrtilloides L.f.,Colombia,Caldas,,"Cabeceras del Río Otún, hacia el Nevado de Santa Isabel; Bagas de la Laguna Negra (Quebrada de la Leona)",Páramo,3800,4.79861111111111,-75.4175,J. Cuatrecasas,23138,24-Nov-1946,"Arbolito, ramas horizontales. Hoja verde brillante haz, verde clara envés. Cáliz verde pálido",,,1,1,,,,,,,,,,,,,,,,,,,,,
JC27370,Escallonia myrtilloides L.f.,Colombia,Cauca,,Páramo de las Moras,Páramo,3800,2.83333333333333,-76.2025,"J. Cuatrecasas, C. Lehamnn",27370,17-Feb-1969,"Arbolito copa con ramaje plano, verde oscuro",,1,1,,,,,,1,,,,,,,,,,,,,,,,
JL12782,Escallonia myrtilloides L.f.,Colombia,Nariño,Tuquerres,"Volcán Azufral, Eastern slopes of Volcán Azufral, ca. 9-13 km W of Tuquerres",Grass páramo without Espeletia,3750,1.11666666666667,-77.6666666666667,"J.L. Luteyn, J. Fuertes, O. Rangel",12782,12-May-1989,"Shrub 2 m tall, Calyxes green. Rare",1,1,,,,,,,,,,,,,,,,,,,,,,,
JL13004,Escallonia myrtilloides L.f.,Colombia,Quindío,Salento,Vereda Cocora,Sub-Páramo,3700,4.7,-75.3333333333333,"J.L. Luteyn, J. Fuertes, O. Rangel",13004,22-May-1989,"Shrub 2 m tall. Petals greenish, infrequent in forest with Polylepis",,1,,,,,,,,,,,,,,,,,,,,,,,
JW7766,Escallonia myrtilloides L.f.,Bolivia,Chuquisaca,Camino Preincaico Chataquilla-Chanuaca,,Scattered trees by a stream and on the hillside above in sandstone country,3400,-18.9666666666667,-65.4,J.R. Wood,7766,27-Dec-1993,"Small tree 2-3.5 m high with stiff spreading brnaches, corolla white, slightly fragran, much visited by bees and other insects",,,,,,,,,1,,,,,,,,,,,,,,,,
LV5937,Escallonia myrtilloides L.f.,Perú,Cusco,Calca,"Lares, Suyo",Bosque secundario húmedo,3000,-12.55,-72,"L. Valenzuela, E. Suclli, I. Huamantupa, J. Farfán, N. Anaya, H. Coasaca, J. Tito",5937,22-Jun-2005,"Arbol 6 m, frutos verdes",1,,,,,,,,,,,,,,,,,,,,,,,,
LV854,Escallonia myrtilloides L.f.,Perú,Cusco,La Convención,"Santa Ana, Punkuyoc, Tunquimayo",Bosque primario húmedo,3400,-12.9444444444444,-72.8388888888889,"L. Valenzuela, E. Suclli, I. Huamantupa",854,24-Oct-2002,"Arbusto 1 m, flor blanca 1 cm",1,,,,,,,,,,,,,,,,,,,,,,,,
MD2942,Escallonia myrtilloides L.f.,Perú,Cajamarca,Cajamarca,ca. 12 km SW of Cajamarca on road to Cumbemayo (Acueducto y bosque de piedras),,3550,-7.19527777777778,-78.57,"M. Dillon, U. Molau, P. Matekaitis",2942,12-Jan-1983,"Shrub to 1 m, flowers white",,1,1,,,,,,,,,,,,,,,,,,,,,,
NL221,Escallonia myrtilloides L.f.,Bolivia,Santa Cruz,Manuel María Caballero,,Bosque nublado intervenido por agricultura,2900,-17.7891666666667,-64.7194444444444,"N. Ledezma, I. Vargas, E. Calzadilla, D. Rocabaldo, A. Carrasco, D. Soto, C. Jordan",221,10-Mar-2003,Arbol de 4 m de altura con flores de color crema verdusca,1,,,,,,,,,,,,,,,,,,,,,,,,
NR2822,Escallonia myrtilloides L.f.,Bolivia,Cochabamba,Quillacollo,"The road from Quillacollo to Morochata, just above the comunity of San Miguel","Steep slope wth remnants of Polylepis and young (plantes) Eucalyptus. Soil rcky, but fairly rich.  Heavily grazed area. Valles secos transition to Puna",3650,-17.2691666666667,-66.3277777777778,"N. Ritter, J. Wood",2822,27-Jan-1996,"Small tree, bark grey and slightly flaky, corolla white",1,,,,,,1,,,,,,,,,,,,,,,,,,
PH7207,Escallonia myrtilloides L.f.,Perú,Tacna,Tarata,"Above Tarta 15 km, km 74 from Tacna",,3370,-17.6666666666667,-70,"P. Hutchinson, J.K. Wright",7207,28-Nov-1964,"Compact shrub ca 1 m, white clowers",1,1,1,1,1,,,,1,,,,,,,,,,,,,,,,
PJ92172,Escallonia myrtilloides L.f.,Ecuador,Loja,,"Jimbura-Zumba road, not finished, km 17, at small lake",Páramo and Sphagnum bog with forest,3450,-4.73333333333333,-79.4166666666667,"P.M. Jorgensen, C. Ulloa",92172,27-Jul-1990,"Shrub 1.5 m, corolla yellow with red marks on the outside",1,1,,,,,,,1,,,,,,,,,,,,,,,,
TN78,Escallonia myrtilloides L.f.,Ecuador,Pichincha,Cangahua,Via Quito-Cayambe. Construcción de vía Cangahua-Oyacachi,Bosque húmedo subalpino; bosque degradado,3750,-0.0333333333333333,-78.25,T. Nuñez,78,10-Feb-1995,Arbol de 3 m de altura. Dominante en relictos de bosque. Flores rosadas,,1,,,,,,,,,,,,,,,,,,,,,,,
WD1937,Escallonia myrtilloides L.f.,Colombia,Valle del Cauca,Tulua,"Corregimiento Santa Lucia, Finca las Nieves, Páramo Las Hermosas, Cordillera Central de los Andes.",Paramo,3300,3.8,-75.9333333333333,W. Devia A. y F. Prado,1937,24-Sep-1987,"Arbol, 8 m de alto; flores verde claro; hojas haz verde oscuro, envés grisáceo.",1,,,,,,,,,,,,,,,,,,,,,,,,
WF547,Escallonia myrtilloides L.f.,Perú,Cuzco,Paucartambo,"Kosñipata, Acjanacu a Tres Cruces, Acjanacu a Tres Cruces.","Pajonal con parches de vegetación arbórea, dominada pr Cunoniaceae, Asteraceae",3650,-13.255,-71.6055555555556,"W. Farfan R., et al.",547,27-Jun-2003,"Arbusto, flores verdes",1,,,,,,,,,,,,,,,,,,,,,,,,
AB3728,Escallonia myrtilloides L.f. var. myrtilloides,Colombia,Santander,Pamplona,"On road between Bucaramanga and Pamplona, between kilometer markers 44 and 45",Steep shrubby slope,3100,7.26666666666667,-72.9166666666667,"A.S. Barclay, A. Fernandez-Perez",3728,6-Feb-1974,"Tree, 4 m in height with dropping branches; foliage dark green above, pale below; calyx green; corolla pale green at base, darker green mouth; stamens pale; stigma and style green; ovary pale",,,,1,,,,,,,,,,,,,,,,,,,,,
AC3134,Escallonia myrtilloides L.f.,Colombia,Cundinamarca,La Calera,"Páramo de Cruz Verde, Camino real entre la Laguna El Verjón y La Viga",Páramo,3500,4.56666666666667,-74.0333333333333,"A.M. Cleef, R. Jaramillo",3134,23-Apr-1972,"Arbol 4 m, flores verdosas",,1,,,,,,1,,,,,,,,,,,,,,,,,
DS10115,Escallonia myrtilloides L.f.,Perú,Ancash,Recuay,"Huascaran N. P., above Querococha.",Cliff in puna grassland; morainal material.,4100,-9.7,-77.3166666666667,D.N. Smith & Flavia Escalona,10115,30-Mar-1985,Shrub 2m; fl white; fr green. Fls with sweet odor.,1,,1,,,,,,,,,,,,,,,,,,,,,,
FL4756,Escallonia myrtilloides L.f. var. myrtilloides,Colombia,Cauca,Popayán,Close formations on the páramo de Guanacas,Páramo,3450,2.525,-76.1866666666667,F.C. Lehmann,4756,,"Bushy trees up to 5 m in height. Foliage dark green, shiny. Flowers white-green",,,1,1,,,,,,,,,,,,,,,,,,,,,
GL3124,Escallonia myrtilloides L.f. var. myrtilloides,Ecuador,Loja,Loja,"Loja-Saraguro, 8.5 km N of San Lucas, track to Fierro Urco, km 10",Polylepis forest in declivity surrounded by grass tussock páramo on 30 cm deep black humid soil,3550,-3.72388888888889,-79.3363888888889,"G.P. Lewis, B.B. Klitgaard",3124,29-Mar-1997,"Shrub 1-1.5 m, leaves discolorous, dark glossy green above, paler whitish green below; flowers +/- nodding, calyces green heavily tinged dark red, corolla pale creamish green with red reflexed lobes, stigma bright green.  Locally common",1,,,,,,,,1,,,,,,,,,,,,,,,,
JC24502,Escallonia myrtilloides L.f. var. myrtilloides,Colombia,Magdalena,,"Sierra Nevada de Santa Marta, Southeastern slopes: Hoya del Rio Donachuí: Diricune Sabana",Páramo,3260,10.7822222222222,-73.5,"J. Cuatrecasas, R. Romero-Castañeda",24502,29-Sep-1959,"Tree with horizontal crown. Leaves coriaceous, black green above, light beneath. Corolla whitish withlight green lobes",,1,1,,,,,,1,,,,,,,,,,,,,,,,
JC25054,Escallonia myrtilloides L.f. var. myrtilloides,Colombia,Magdalena,Manaure,"Sierra de Perijá, Sabana Rubia",Páramo,3100,10.3628888888889,-72.9491388888889,"J. Cuatrecasas, R. Romero-Castañeda",25054,7-Nov-1959,"Tree with flattened foliage. Leaves green above, light green beneath. Corolla greenish white",,1,1,1,,,,,,,,,,,,,,,,,,,,,
JS17503,Escallonia myrtilloides L.f. var. myrtilloides ,Bolivia,La Paz,Sud Yungas,5.8 km al O de Lambate por el camino a La Paz.,Laderas con gramíneas y arbustos bajos.,3700,-16.5833333333333,-67.7166666666667,J.C. Solomon,17503,12-Jan-1988,"Arbusto, 1 m. Pétalos blancos.",1,1,,,,,,,,,,,,,,,,,,,,,,,
PG560,Escallonia myrtilloides L.f. var. myrtilloides,Colombia,Boyacá,,Sierra Nevada de Cocuy,Cloud Forest,2900,6.41666666666667,-72.3,"P.J. Grubb, B.A.B Curry, A. Fernandez-Perez",560,16-Aug-1957,"Tree to 8 m, brnaching applanate. Edges of all leaves purple-gland-dotted. Receptacle and calyx pale green woth purple-glands-dots (excpetion adherent part of calyx). Petals white (+/- waxy) with green recurved tips.  Intrastaminal disk yellow, style white at base, green at top. Filaments white; anthers dark bown with yellow pollen",,,,1,,,,,1,,,,,,,,,,,,,,,,
AF8711,Escallonia myrtilloides L.f. var. patens Sleumer,Bolivia,La Paz,Franz Tamayo,"Parque Nacional Madidi, sector Quimsa Cruz, entre Calla y Tokoake","Bosque de yungas en ceja de monte inferior pluvial con Symplocos, Weinmannia sp y Ericaceae sp",3300,-14.655,-68.9630555555556,"A. Fuentes, I. Jiménez, R. Hurtao, R. Cuevas",8711,25-Jun-2005,"Arbolito 2.3 m, flores verdoso-amarillents",1,,,,,,,,,,,,,,,,,,,,,,,,
AL7565,Escallonia myrtilloides L.f. var. patens Sleumer,Perú,Ancash,Huari,Machac-Tunel Kahuish,En borde de carretera,3800,-9.3725,-77.2416666666667,"A. López, A. Sagastegui, A. Aldave",7565,26-May-1970,Arbusto de flores blancas,1,,,1,,,1,,,,,,,,,,,,,,,,,,
FL7708,Escallonia myrtilloides L.f. var. patens Sleumer,Colombia,Cauca,Popayán,Close formations on the páramo de Guanacas,Páramo,3500,2.52472222222222,-76.1863888888889,F.C. Lehmann,7708,,"Trees up to 5 m in height with large, round close and irregularly hanging crowns of branches. Trunk up to 30 cm in diam. with rogh bark.  Leaves leathery, dark green, shiny on the upperside. Flowers white green",,,1,1,,,,,,,,,,,,,,,,,,,,,
JS52404,Escallonia myrtilloides L.f. var. patens Sleumer,Ecuador,Pichincha,Volcán Pichincha,"Declive oriental del Volcán Pichincha, near summit of Cruz Loma, 5-6 km west of Quito",,3400,-0.206666666666667,-78.5541666666667,J.A. Steyermark,52404,11-Apr-1943,Shrub 8-10 feet tall; petals green,,,1,,,,,,,,,,,,,,,,,,,,,,
LA2584,Escallonia myrtilloides L.f. var. patens Sleumer,Venezuela,Mérida,,"Siera Nevada de Mérida, Laguna de Coromoto",,3200,8.58638888888889,-71.005,L. Aristeguieta,2584,1-Sep-1956,"Arbol pequeño, de copa redonda, flores cremosas",,1,1,,,,,,,,,,,,,,,,,,,,,,
ML38831,Escallonia myrtilloides L.f. var. patens Sleumer,Bolivia,La Paz,Inquisiví,"Slope Sw of the río Ocsalla, a few hundred m above the river and 3 km SE of its mouth 12 km NE of Choquetanga",Forest edges. This area is in a rain shadow of the Serranía de Lulini and has hevily grazed matorral and forest along the ravines,3300,-16.8,-67.2833333333333,M. Lewis,38831,18-Apr-1991,Scattered shrub 2-4 m high. Sepals and petals green. Thin brnaches and trunk,1,1,1,,,,,,,,,,,,,,,,,,,,,,
RD2188,Escallonia myrtilloides L.f. var. patens Sleumer,Venezuela,Mérida,,"Siera Nevada de Mérida, Laguna de Coromoto","Rocky open grassland, road Laguna de Coromoto",3400,8.59,-71.0152777777778,R. Dennis,2188,7-Aug-1958,"Shrub, 4-5  feet with flat spreading brnaches",,,,,,,,1,1,,,,,,,,,,,,,,,,
RG102,Escallonia myrtilloides L.f. var. patens Sleumer,Costa Rica,Cartago,Oreamuno,Volcán Irazú,Bosque a la orilla del camino al Volcán Irazú,2520,9.87972222222222,-83.9083333333333,R. Gonzalez,102,17-Sep-1995,"Arbolito, 3 m de altura. Abundantes flores. Prescencia de agallas",,,1,,,,,,1,,,,,,,,,,,,,,,,
RO334,Escallonia myrtilloides L.f. var. patens Sleumer,Costa Rica,Heredia,Parque Nacional Braulio Carrillo,Volcán Barba,,2900,10.1222222222222,-84.1013888888889,"R. Ortiz, A. Soto",334,5-May-2005,Arbol ca. 7 m. Flores verdosas,1,,,,,,,,,,,,,,,,,,,,,,,,
RW10639,Escallonia myrtilloides L.f. var. patens Sleumer,Costa Rica,Alajuela,Poas,Upper slopes of Volcán Poas,In the forest about the crater area,2700,10.1897222222222,-84.2297222222222,"R.L. Wilbur, D.E. Stone",10639,1-Sep-1968,"Common bushy shrub to medium sized tree, 1.5-8 m tall. Petals pale yellowish with greenish yellow tips. Stigma green. Anthers yellow",,1,1,1,1,,1,,,,,,,,,,,,,,,,,,
AS3469,Escallonia rosea Griseb.,Argentina,Chubut,Lago Mendez,,Alerzal,550,-42.7472222222222,-72.0022222222222,A. Soriano,3469,10-Feb-1949,,,,,,,,,1,,,,,,,,,,,,,,,,,
CHsn,Escallonia rosea Griseb.,Chile,Aysen,Istmo de Ofqui,,,450,-46.7972222222222,-74.0677777777778,C.M. Hicken,sn,17-Feb-1921,,,,,,,,,1,,,,,1,,,,,,,,,,,,
CT10396,Escallonia rosea Griseb.,Chile,Biobio,Angol,"Road between Angol and Parque Nacional Nahuelbuta, more or less in middle of distance","Dry roadsides and scrub, and under pine plantation and thicketsof native including Drimys, Persea and Nothofagus",300,-37.6666666666667,-73,"C.M. Taylor, I. Maltes, P. Peñailillo, M. Baeza",10396,3-Dec-1990,"Occasional, straggly shrubs to 2 m, arching near river; flowers deep red",1,,,,,,,,,,,,,,,,,,,,,,,,
FZ114,Escallonia rosea Griseb.,Chile,Los Lagos,Osorno,"Parque Nacional Puyehue, camino a volcán Antillanca, Laguna del Toro","En borde de camino, frente al lago en un “muro” de roca muy húmedo. Creciendo con helechos, Gunnera, Berberis, Fuchsia, musgos",721,-40.77,-72.2711111111111,F. Zapata,114,26-Oct-2005,"Arbusto 1.8 m, hojas grandes y con margenes un poco similares a E.rubra (dientes dobles), no flores, frutos secos",1,,,,,,,,,,,,,,,,,,,,1,,,,
FZ366,Escallonia rosea Griseb.,Chile,Biobio,Angol,Subiendo de Angol a Parque Nacional Nahuelbuta,En bosque nativo de Nothofagus. Creciendo en la orilla de una quebrada E. aff. leucantha y E. revoluta,774,-37.6016666666667,-72.8008333333333,"F. Zapata, S. Sede",366,19-Jan-2008,"Arbusto 2 m, flores rosadas",1,,,,,,,,,,,,,,,,,,,,1,,,,
FZ379,Escallonia rosea Griseb.,Chile,Biobio,Cañete,Saliendo del Parque Nacional Nahuelbuta hacia Cañete,"A orillas de una quebrada, en un lugar muy húmedo y suelo cubierto de musgos. Creciendo con Nothofagus, Fuchsia, Chusquea",984,-37.81,-73.0566666666667,"F. Zapata, S. Sede",379,20-Jan-2008,"Arbusto pequeño de 1m, flores con cáliz rosado oscuro y pétalos de color rosado claro en la cara adaxial.",1,,,,,,,,,,,,,,,,,,,,1,,,,
FZ427,Escallonia rosea Griseb.,Chile,Araucania,Victoria,"Curacautin, camino a Termas de Río Blanco, puente río Negro","A orillas del río, con Nothofagus",798,-38.5394444444444,-71.6758333333333,"F. Zapata, S. Sede",427,23-Jan-2008,"Arbusto 1 m, ramas decumbentes sobre el río, flores rosadas (ver FZ 426, E. rosea con flores blancas y FZ 425 E. rubra con flores completamente rojas; todas en simpatría)",1,,,,,,,,,,,,,,,,,,,,1,,,,
FZ457,Escallonia rosea Griseb.,Chile,Araucania,Victoria,"Curacautín, camino a Termas de Tolhuaca","Borde de camino, a orillas de una quebrda. Con Nothofagus, Berberis, Fuchsia",1068,-38.2533333333333,-71.7486111111111,"F. Zapata, S. Sede",457,24-Jan-2008,"Arbusto 1.5 m, flores rosadas",1,,,,,,,,,,,,,,,,,,,,1,,,,
FZ510,Escallonia rosea Griseb.,Chile,Los Lagos,Osorno,"Parque Nacional Puyehue, camino a volcán Antillanca, Laguna del Toro","En borde de camino, frente al lago en un “muro” de roca muy húmedo. Creciendo con Nothofagus, Berberis, Fuchsia, helechos y musgos",725,-40.7702777777778,-72.2711111111111,"F. Zapata, S. Sede",510,1-Feb-2008,"Arbusto 1.8m, flores blancas (muy raro en E. rosea)",1,,,,,,,,,,,,,,,,,,,,1,,,,
FZ512,Escallonia rosea Griseb.,Chile,Los Lagos,Osorno,"Parque Nacional Puyehue, camino a volcán Antillanca, Laguna del Toro","A orillas de la laguna. Con Fuchsia, Nothofagus, Chusquea, Juncaceae",720,-40.7702777777778,-72.2713888888889,"F. Zapata, S. Sede",512,1-Feb-2008,"Arbusto 2 m, flores blancas! (muy raro en E rosea)",1,,,,,,,,,,,,,,,,,,,,1,,,,
FZ527,Escallonia rosea Griseb.,Chile,Los Ríos,La Unión,"Camino de La Unión a Hueicolla, después de Las Trancas ca. 8 km antes de llegar al Monumento Nacional Alerce Costero.","A orillas de una quebrada en bosque mezcaldo de flora nativa (Nothofagus, Berberis, etc) e introducida",592,-40.2077777777778,-73.4,"F. Zapata, S. Sede",527,1-Feb-2008,"Arbusto 2 m, flor blanca",1,,,,,,,,,,,,,,,,,,,,1,,,,
FZ531,Escallonia rosea Griseb.,Chile,Los Ríos,La Unión,"Cordillera Pelada, camino entre Monumento Nacional Alerce Costero y Hueicolla","Borde de bosque de Nothofagus y Alerce (Fitzroya sp). Con Desfontainia, Berberis. Suelo rocoso de arenisca",899,-40.1772222222222,-73.4408333333333,"F. Zapata, S. Sede",531,2-Feb-2008,"Arbusto 1.7 m, madera jóven rojo muy fuerte, flor blanco níveo, ovario rojizo",1,,,,,,,,,,,,,,,,,,,,1,,,,
FZ532,Escallonia rosea Griseb.,Chile,Los Ríos,La Unión,"Cordillera Pelada, camino entre Monumento Nacional Alerce Costero y Hueicolla","Borde de bosque de Nothofagus y Alerce (Fitzroya sp). Con Desfontainia, Berberis. Suelo rocoso de arenisca",900,-40.1772222222222,-73.4405555555556,"F. Zapata, S. Sede",532,2-Feb-2008,"Arbusto 2 m, madera jóven rojo muy fuerte, flor blanco níveo, ovario rojizo",1,,,,,,,,,,,,,,,,,,,,1,,,,
GS49,Escallonia rosea Griseb.,Chile,Aysen,Paso Ventisquero,Puerto Puyuhuapi,,500,-44.3333333333333,-72.5263888888889,G.H. Schwabe,49,28-Dec-1939,,,1,,,,,,,,,,,,,,,,,,,,,,,
MC12841,Escallonia rosea Griseb.,Chile,Los Rios,La Unión,"West slope of Cordillera pelada, 3.1 km by road west of El Mirador on road between La Unión and Punta Hueicolla","Drier area near bog of Astelia, Donatia, Gaimardia with scattered patches of Sphagnum",840,-40.1166666666667,-73.5666666666667,M.R. Crosby,12841,18-Feb-1976,"Shrub to 2m, flowers white",1,,,,,,,,,,,,,,,,,,,,,,,,
MG3452,Escallonia rosea Griseb.,Chile,Los Lagos,Llanquihue,"Vicente Perez Rosales National Park, upper slopes of Volcán Osorno",Sparsely vegetated volcanic slopes,200,-41.1666666666667,-72.5,M.F. Gardner,3452,10-Jan-1986,Flowers white,,,,,,,,,,1,,,,,,,,,,,,,,,
OZ8661,Escallonia rosea Griseb.,Argentina,Santa Cruz,Lake Argentina,,Border of lake Argentina,185,-50.3319444444444,-72.5030555555556,O. Zöllner,8661,2-Feb-1976,,1,,,,,,,,,,,,,,,,,,,,,,,,
FZ392,Escallonia rosea Griseb.,Chile,Biobio,Chillán,Ascenso a Termas de Chillán,"A orillas de una quebrada en medio del bosque nativo de Nothofagus, Chusquea y Alstroemeria (flor naranja). Suelo muy húmedo cubierto completamente por briófitos",1472,-36.9180555555556,-71.4280555555556,"F. Zapata, S. Sede",392,22-Jan-2008,"Arbusto 2 m, botnoes florales y flores rosado pálido, cáliz verde",1,,,,,,,,,,,,,,,,,,,,1,,,,
FZ394,Escallonia rosea Griseb.,Chile,Biobio,Chillán,En camino a Termas de Chillán,"En borde de quebrada con suelo completamente humedo y anegado. Crece con Chusquea, Hypericum y Mimulus",1662,-36.9075,-71.4113888888889,"F. Zapata, S. Sede",394,22-Jan-2008,"Arbusto 1.8 m, muy ramificado, flores rosado intenso con cáliz verde",1,,,,,,,,,,,,,,,,,,,,1,,,,
FZ395,Escallonia rosea Griseb.,Chile,Biobio,Chillán,En camino a Termas de Chillán,"En borde de quebrada con suelo completamente humedo y anegado. Crece con Chusquea, Hypericum y Mimulus",1662,-36.9075,-71.4113888888889,"F. Zapata, S. Sede",395,22-Jan-2008,"Arbsuto 1 m, botnoes florales rosados y flores rosadas",1,,,,,,,,,,,,,,,,,,,,1,,,,
FZ464,Escallonia rosea Griseb.,Chile,Maule,Curicó,"Reserva Nacional Radal Siete Tazas, Sendero los Chiquillanes, por el desvío del sendero hacia vertiente El Canelo","En medio de bosque maduro de Nothofagus, muy cerca de la quebrada. Creciendo con Drymis, Fuchsia",1328,-35.4661111111111,-70.9772222222222,"F. Zapata, S. Sede",464,27-Jan-2008,"Arbsuto 2.3 m con ramificaciones muy largas; hojas pubescentes (rato en E. rosea); flores rosado muy pálido, casi blanco",1,,,,,,,,,,,,,,,,,,,,1,,,,
FZ466,Escallonia rosea Griseb.,Chile,Maule,Curicó,"Reserva Nacional Radal Siete Tazas, Sendero los Chiquillanes, por el desvío del sendero hacia vertiente El Canelo","En medio de bosque maduro de Nothofagus, muy cerca de la quebrada. Creciendo con Drymis, Fuchsia. Suelo muy húmedo cubierto por briófitos",1328,-35.4661111111111,-70.97725,"F. Zapata, S. Sede",466,27-Jan-2008,"Arbusto 3 m, flores muy grandes (más grandes de lo usual en esta especie) de color rosado intenso, con la parte apical rosado pálido; algunos frutos viejos",1,,,,,,,,,,,,,,,,,,,,1,,,,
FZ470,Escallonia rosea Griseb.,Chile,Maule,Curicó,"Reserva Nacional Radal Siete Tazas, Sendero los Chiquillanes, final del sendero llegando al parque Inglés",Quebrada en medio de bosque nativo,1312,-35.4691666666667,-70.9722222222222,"F. Zapata, S. Sede",470,27-Jan-2008,"Arbusto 3 m, flores rosado intenso con parte apical de los pétalos rosado pálido",1,,,,,,,,,,,,,,,,,,,,1,,,,
FZ477,Escallonia rosea Griseb.,Chile,Maule,Talca,"Vilches Alto, Reserva Nacional Altos del Lircay, sendero hacia la laguna del Alto","En medio de bosque maduro de Nothofagus, en un cañón donde se acumula mucha humedad; bosque denso con dosel del 20 m, hojarasca densa, suelo muy húmedo",1661,-35.5966666666667,-71.0175,"F. Zapata, S. Sede",477,28-Jan-2008,"Arbsuto 2 m, hojas de gran tamaño, flores rosadas",1,,,,,,,,,,,,,,,,,,,,1,,,,
MG291,Escallonia rosea Griseb.,Chile,Maule,Linares,Reserva Nacional Los Bellotos del Melado,"Quebrada leading to Cerro El Melado, rocky streamside margins",1374,-35.8561944444444,-71.0955555555555,"M.F. Garnder, P. Hechenleitner, C. Martinez, P.I. Thomas",291,28-Jan-2003,Evergreen shrub to 2 m or more. Flowers white,,,,,,,,,,1,,,,,,,,,,,,,,,
MG296,Escallonia rosea Griseb.,Chile,Maule,Linares,Reserva Nacional Los Bellotos del Melado,"Quebrada leading to Cerro El Melado, rocky streamside margins",1374,-35.8562222222222,-71.0955277777778,"M.F. Garnder, P. Hechenleitner, C. Martinez, P.I. Thomas",296,28-Jan-2003,Shrub to 2 m,,,,,,,,,,1,,,,,,,,,,,,,,,
MG4409,Escallonia rosea Griseb.,Chile,Maule,Talca,Vilches Alto,Undisturbed mixed native forest dominates by Nothofagus spp.,1500,-35.5,-71.1666666666667,"M.F. Gardner, S.H. Knees, M.L. De Vore",4409,21-Jan-1990,"Shrub to 4 m, foliage very softly pubsecent, flowers rich pink in terminal racemes",,,,,,,,,1,1,,,,,,,,,,,,,,,
MG85,Escallonia rosea Griseb.,Chile,Maule,Talca,"Reserva Nacional Radal Siete Tazas, Sector Parque Inglés, Sendero los Chiquillanes",Nothofagus obliqua and N. dombeyi forest,1341,-35.4658055555556,-70.9764166666667,"M.F. Garnder, P. Hechenleitner, C. Martinez, P.I. Thomas",85,24-Jan-2003,"Shrub to 3 m tall, new growth with soft hairs on stem . Flowers blushed pale rose",,,,,,,,,,1,,,,,,,,,,,,,,,
MG86,Escallonia rosea Griseb.,Chile,Maule,Talca,"Reserva Nacional Radal Siete Tazas, Sector Parque Inglés, Sendero los Chiquillanes",Nothofagus obliqua and N. dombeyi forest,1341,-35.4658333333333,-70.9763888888889,"M.F. Garnder, P. Hechenleitner, C. Martinez, P.I. Thomas",86,24-Jan-2003,"Shrub to 3 m tall, stem glabrous, flowers wine-red outer, pale pink within",,,,,,,,,,1,,,,,,,,,,,,,,,
TP14215,Escallonia rosea Griseb.,Chile,Araucania,Malleco,"Las Varas, About 14 km from Curacautín, on the road to Victoria.",Open woodland by a little stream,500,-38.3263888888889,-72.0613888888889,T.M. Pedersen,14215,13-Jan-1986,"Shrub 3 m, flowers red",1,,,,,,,,,,,,,,,,,,,,,,,,
CE10571,Escallonia alpina Poepp. ex DC.,Chile,Osorno,Antillanca,Parque Nacional Puyehue,"Foret a Nothofagus, a la limte de la vegetation arborescente",1050,-40.75,-72.15,C. Evrard,10571,26-Jan-1985,"Sous-arbuste 80 cm de haut, fl. Roses",1,,,,,,,,,,,,,,,,,,,,,,,,
CE10626,Escallonia alpina Poepp. ex DC.,Chile,Los Lagos,Chaitén,"Santa Lucía, near Carretera Austral, a 81 km de Chaitén",Foret a Nothofagus dombeyi,600,-43.4166666666667,-73.3594444444444,C. Evrard,10626,9-Feb-1985,"Arbuste 2 m de haut, jeunes fr",,,,,,,,,,,,1,,,,,,,,,,,,,
F15998,Escallonia alpina Poepp. ex DC.,Chile,Araucania,Cautín,Volcán Villarica,,1200,-39.3833333333333,-71.9833333333333,F.W. Hunnewell,15998,13-Jan-1939,,,,,,,,1,,,,,,,,,,,,,,,,,,
FZ331,Escallonia alpina Poepp. ex DC.,Chile,Santiago,Santiago,"Valle del rio Mapocho, Villa Paulina, Yerba Loca","Subiendo al Nevado, cerca de una depresión húmeda. Creciendo con Fabiana sp y Escallonia myrtoidea",2033,-33.3005555555556,-70.3180555555555,F. Zapata,331,12-Jan-2008,"Arbusto 80 cm, madera amarillosa, flores rosadas",1,,,,,,,,,,,,,,,,,,,,1,,,,
FZ338,Escallonia alpina Poepp. ex DC.,Chile,Santiago,Santiago,"Valle del rio Mapocho, Villa Paulina, Yerba Loca","Subiendo a Nevado a orillas del río, en pequeño matorral altoandino con Berberis, Loasaceae, Baccharis",1980,-33.2963888888889,-70.3144444444444,F. Zapata,338,12-Jan-2008,"Arbusto 1.7 m, muy ramificado desde la base formando un arbusto frondoso! flores de color rojo intenso con tintes blancos en la base de pétalos; este color de pétalos es completamente diferente al color de los individuos de E. alpina que recolecté cuando E.alpina crecia con más individuos de E. myrtoidea en simpatría (en esa localidad hay muy pocos individuos de E. myrtoidea)",1,,,,,,,,,,,,,,,,,,,,1,,,,
FZ400,Escallonia alpina Poepp. ex DC.,Chile,Biobio,Nuble,"Chillán, Termas de Chillán, Cerro Fumarolas","Subiendo al cerro a ca. 100 m del primer cráter en una depresión húmeda formando un gran parche de E. alpina.  Crece a la sombra de una gran roca; el suelo está un poco seco por ser verano y hay algunas rocas muy grandes en medio del pastizal.  Crece con flora típica altoandina (arrosetada): Apiaceae, Rosaceae, Calceolaria, Plantago Lathyrus, Adesmia, Santalaceae",1912,-36.9052777777778,-71.4033333333333,"F. Zapata, S. Sede",400,22-Jan-2008,"Arbusto 50 cm, flores rojizas. Muchas moscas y abjeas visitando las flores",1,,,,,,,,,,,,,,,,,,,,1,,,,
FZ401,Escallonia alpina Poepp. ex DC.,Chile,Biobio,Nuble,"Chillán, Termas de Chillán, Cerro Fumarolas","Subiendo al cerro a ca. 100 m del primer cráter en una depresión húmeda formando un gran parche de E. alpina.  Crece a la sombra de una gran roca; el suelo está un poco seco por ser verano y hay algunas rocas muy grandes en medio del pastizal.  Crece con flora típica altoandina (arrosetada): Apiaceae, Rosaceae, Calceolaria, Plantago Lathyrus, Adesmia, Santalaceae",1914,-36.9052777777778,-71.4036111111111,"F. Zapata, S. Sede",401,22-Jan-2008,"Arbusto 30 cm, flores rosado muy pálido! creciendo junto a otras formas de E. alpina con flores rosado más oscuro o aún más rojizo.  Muchas moscas y abejas visitando flores",1,,,,,,,,,,,,,,,,,,,,1,,,,
FZ416,Escallonia alpina Poepp. ex DC.,Chile,Biobio,Nuble,"Antuco, Parque Nacional Laguna del Laja, pasando refugio, frente a laguna (apenas empieza la laguna).","Terreno pedregoso, suelo volcánico, lugar muy agreste con fuertes vientos",1256,-37.3780555555556,-71.3622222222222,"F. Zapata, S. Sede",416,22-Jan-2008,"Arbustro rastrero muy ramificado a nivel del suelo, creciendo sobre roca volcánica, ca. 20 cm de altura; flor rojiza",1,,,,,,,,,,,,,,,,,,,,1,,,,
FZ422,Escallonia alpina Poepp. ex DC.,Chile,Biobio,Nuble,"Antuco, Parque Nacional Laguna del Laja, pasando refugio, frente a laguna (apenas empieza la laguna).","Terreno pedregoso, suelo volcánico, lugar muy agreste con fuertes vientos",1259,-37.3780555555556,-71.3622222222222,"F. Zapata, S. Sede",422,22-Jan-2008,"Arbustro rastrero muy ramificado a nivel del suelo, creciendo sobre roca volcánica, ca. 20 cm de altura; flor rojiza",1,,,,,,,,,,,,,,,,,,,,1,,,,
FZ424,Escallonia alpina Poepp. ex DC.,Chile,Biobio,Nuble,"Antuco, Parque Nacional Laguna del Laja, pasando refugio, frente a laguna (apenas empieza la laguna).","Terreno pedregoso, suelo volcánico, lugar muy agreste con fuertes vientos",1255,-37.3780555555556,-71.3622222222222,"F. Zapata, S. Sede",424,22-Jan-2008,"Arbusto rastrero muy ramificado a nivel del suelo, ca. 20 cm de altura y resguardado del viento bajo la sombra de grtandes rocas, muchas flores rojas",1,,,,,,,,,,,,,,,,,,,,1,,,,
FZ479,Escallonia alpina Poepp. ex DC.,Chile,Maule,Talca,"Vilches Alto, Reserva Nacional Altos de Lircay, sendero hacia Laguna del Alto",Parte alta del sendero cuando se acaba el bosque y empieza vegetación altoandina. En una quebrada con pequeño arbolito de Nothofagus. En simpatría absoluta con E. virgata,1913,-35.5997222222222,-71.0116666666667,"F. Zapata, S. Sede",479,28-Jan-2008,"Arbusto 80 cm, flor rosada",1,,,,,,,,,,,,,,,,,,,,1,,,,
FZ489,Escallonia alpina Poepp. ex DC.,Chile,Maule,Talca,"Vilches Alto, Reserva Nacional Altos de Lircay, sendero hacia Laguna del Alto",A orillas de una quebrada en medio de pastizal altoandino (principalmente con Chusquea) formando un gran parche de E. alpina.  En la quebrada también hay Berberis.  En la parte más abajo de la quebrada (pocos metros más abajo) también crece E. virgata (FZ-484 onwards),1921,-35.5994444444444,-71.01,"F. Zapata, S. Sede",489,28-Jan-2008,"Arbusto 1 m, flor rojiza",1,,,,,,,,,,,,,,,,,,,,1,,,,
FZ518,Escallonia alpina Poepp. ex DC.,Chile,Los Lagos,Osorno,"Parque Nacional Puyehue, subiendo a volcán Casablanca, por detrás del refugio Andino","Parte alta del bosque de Nothofagus en transición a vegetación típica altoandina, con algunos poco Nothofagus, Gaultheria, Drymis. Suelo volcánico",1130,-40.7744444444444,-72.2002777777778,"F. Zapata, S. Sede",518,1-Feb-2008,"Arbusto 1m, flores rosadas",1,,,,,,,,,,,,,,,,,,,,1,,,,
GIII52,Escallonia alpina Poepp. ex DC.,Chile,Santiago,,In valle flum. Yeso,,2300,-33.3333333333333,-70.25,Gay,"III, 52",1-Jan-1933,Flore rubeo,1,,,,,,,,,,,,,,,,,,,,,,,,
GS2237,Escallonia alpina Poepp. ex DC.,Argentina,Neuquén,Picunches,Ruta provincial 13 y arroyo Primeros Pinos,,1900,-38.8666666666667,-70.4833333333333,G. Seijo,2237,10-Jan-2000,"Arbusto de 2 m, flores color rosado, con estrías mas oscuras.",1,,,,,,,,1,,,,,,1,,,,,,,,,,
GS2641,Escallonia alpina Poepp. ex DC.,Chile,Magallanes,Puerto Natales,"Parque Nacional Torres del Paine, 3 hrs by car north of Puerto Natales, southern Chile, southern extremes of the Andes",Trip from Guarderia Laguna Azul along boundary of park to Nothofagus forest. Meadow just below forest. Haevy shade,600,-50.8677777777778,-72.7952777777778,"G.L. Sobel, J. Strudwick",2641,1-Jan-1981,"Spreading shrub only ca. 30 cm high, possibly higher in places with more light. Flowers white to pale pink. Grassy area",,1,,,,,,,,,,,,,,,,,,,,,,,
JK20,Escallonia alpina Poepp. ex DC.,Argentina,Chubut,Valle de la Laguna Blanca,,,700,-45.8666666666667,-71.25,J. Koslowsky,20,30-Oct-1906,,,,,,,,,,,,,,,1,,,,,,,,,,,
JS4381,Escallonia alpina Poepp. ex DC.,Chile,Nuble,Termas de Chillán,ca. 300 m above Termas de Chillán,Rocky hillside,1200,-36.8333333333333,-71.4166666666667,"J.C. Solomon, A. Solomon",4381,17-Jan-1979,"Shrub +/- 70 cm, flowers red, leaves dark green above, pale green beneath",1,,,,,,,,,,,,,,,,,,,,,,,,
KR4614,Escallonia alpina Poepp. ex DC.,Argentina,RIo Negro,Bariloche,Cerro Lopez,,1650,-41.1,-71.5833333333333,"K. Rahn, S. Ødum",4614,2-Mar-1979,,1,,,,,,,,,,,,,,,,,,,,,,,,
MF6193,Escallonia alpina Poepp. ex DC.,Chile,Magallanes,Ultima Esperanza,"Torres del Paine, Lago Gray",Notofagus pumilo forest,50,-51.1272222222222,-73.1302777777778,"M.F. Gardner, S.G. Knees",6193,9-Dec-1999,Shrub to 1.5 m (often less). Flowers deep pink (sometimes white or pale pink),,,,,,,,,,1,,,,,,,,,,,,,,,
MG6031,Escallonia alpina Poepp. ex DC.,Chile,Magallanes,Ultima Esperanza,"Torres del Paine, mountain route from Hosteria Los Torres near swing bridge of the Rio Ascencio",Steep grassy slopes,500,-50.9833333333333,-72.85,"M.F. Gardner, S.G. Knees",6031,4-Nov-1996,Evergreen shrub,,,,,,,,,,1,,,,,,,,,,,,,,,
MG6904,Escallonia alpina Poepp. ex DC.,Chile,Araucania,Malleco,"Cunco, Cordillera de los Andes, Rersva Nasampulli",Hill summit of Araucaria araucana and Nothofagus forest with rocky outcrops,1357,-39.01875,-71.6855833333333,"M.F. Gardner, S.G. Knees",6904,1-Jan-2004,"Ascending shrub to 80 cm, with white and rosey pink flowers. Leaves glossy, pale beneath, mid-greed above",,,,,,,,,,1,,,,,,,,,,,1,,,,
OZ8086,Escallonia alpina Poepp. ex DC.,Chile,Los Lagos,Osorno,Antillanca,On the Volcán Antillanca,1000,-40.75,-72.15,O. Zöllner,8086,9-Feb-1974,,1,,,,,,,,,,,,,,,,,,,,,,,,
PB84,Escallonia alpina Poepp. ex DC.,Chile,Maule,Talca,"Cordillera de los Andes, Valle del Maule",West facing margin of stream side,1750,-35.9452777777778,-70.5080555555556,"P. Baxter, P. Brownless, M. Bustos, M. Gardner, K. Matthews, H.S. Maxwell, D. Rae",84,5-Feb-1998,"Spreading shrub to 2 m, flowers deep pinkish red, sometimes paler",,,,,,,,,,1,,,,,,,,,,,,,,,
PB972,Escallonia alpina Poepp. ex DC.,Chile,Araucania,Malleco,"Curacautín, Parque Nacional Conguillio, path to Sierra Nevada",Dry volcanic ash slopes,1663,-38.6197222222222,-71.5991666666667,"P. Brownless, M.F. Gardner, P. Hechenleitner, P. Hollingsworth, A. Lovett, C. Martínez, P. Thomas - Darwin Chilean Intiative",972,26-Jan-2004,Semi-prostrate shrub with deep red flowers,,,,,,,,,,1,,,,,,,,,,,,,,,
PH335,Escallonia alpina Poepp. ex DC.,Chile,Magallanes,Ultima Esperanza,"Torres del Paine, Monumento Nacional Cueva del Milodón","Creciendo en asociación con Discaria chacaye, Embothrium coccineum, Empetrum rubrum, Escallonia virgata, Gaultheria mucronata y Nothofagus antartica",140,-51.5679444444444,-72.6178611111111,"P. Hechenleitner, M.F. Gardner, C. Martínez, R. Ennos",335,22-Feb-2006,Arbusto de hasta 1.5 m con frutos,,,,,,,,,,1,,,,,,,,,,,1,,,,
PM69850,Escallonia alpina Poepp. ex DC.,Argentina,Santa Cruz,Parque Nacional Los Glaciares,Lago Argentino,,800,-50.4744444444444,-72.4805555555556,P. Moreau,69850,3-Feb-1955,,,,,,,,,,,,,,,1,,,,,,,,,,,
RF4349,Escallonia alpina Poepp. ex DC.,Argentina,Neuquén,Norquin,"2 km de Copahue en dirección a Caviahue, por ruta prov. 27",Estepa,1940,-37.8344444444444,-71.0908333333333,"R.H. Fortunato, M. Elechosa, R. Gandullo",4349,1-Mar-1994,"Arbusto de 1-1.5m, flor roja",,1,,,,,,,,,,,,,,,,,,,,,,,
RWs.n.,Escallonia alpina Poepp. ex DC.,Argentina,Rio Negro,Bariloche,"Cerro Catedral, southwest of Bariloche.",Moderately dense vegetation. Rocky outcrop area near Superior Station. ,1850,-41.2166666666667,-71.5,R.T. Ward,s.n.,8-Feb-1964,,1,,,,,,,,,,,,,,,,,,,,,,,,
ST2285,Escallonia alpina Poepp. ex DC.,Chile,Santiago,Santiago,Parque Nacional El Morado,Ligada a cursos de Agua,2300,-33.8166666666667,-70.0836111111111,"S. Teillier, L. Gonzalez",2285,29-Dec-1990,"Arbusto de hasta 150 cm, flores rosado-purpureas",1,,,,,,,,,,,,,,,,,,,,,,,,
TP14391,Escallonia alpina Poepp. ex DC.,Chile,Aisén,Coihaique,"Reserva Forestal Cerro Castillo, behind the forester's house",Dry Stream bed,1000,-45.8861111111111,-72.1258333333333,T.M. Pedersen,14391,6-Feb-1986,"Low shrub, flowers pink",1,,,,,,,,,,,,,,,,,,,,,,,,
TP14473,Escallonia alpina Poepp. ex DC.,Chile,Magallanes,Ultima Esperanza,Shores of Laguna Grey,On rocky ground,20,-51.5825,-72.7594444444444,T.M. Pedersen,14473,24-Feb-1986,"Low shrub, flowers red",1,,,,,,,,,,,,,,,,,,,,,,,,
TP14476,Escallonia alpina Poepp. ex DC.,Chile,Magallanes,Ultima Esperanza,Shores of Laguna Grey,On rocky ground,20,-51.5825,-72.7588888888889,T.M. Pedersen,14476,24-Feb-1986,"Low shrub, occasionally to 1 m.",1,,,,,,,,,,,,,,,,,,,,,,,,
EW1264,Escallonia alpina Poepp. ex DC. var. alpina ,Chile,Cautín,,Volcán Llaima,,1300,-38.7,-71.7166666666667,E. Werdermann,1264,1-Feb-1927,,1,1,1,,1,,1,,,1,,,1,,,,,,,,,,,,
EW1305,Escallonia alpina Poepp. ex DC. var. alpina ,Chile,Nuble,Baños de Chillán,Aguas Calientes,,2100,-36.9,-71.5666666666667,E. Werdermann,1305,1-Mar-1927,,1,1,1,,1,,,,,1,,,,,,,,,,,,,,,
EW667,Escallonia alpina Poepp. ex DC. var. alpina ,Chile,Llanquihue,,Volcán Yates,,1200,-41.7547222222222,-72.4011111111111,E. Werdermann,667,1-Mar-1925,,1,1,1,1,1,,1,,,1,,,,,,,,,,,,,,,
M2048,Escallonia alpina Poepp. ex DC. var. alpina,Chile,Araucania,Victoria,"Cautín, Termas del Rio Blanco",,1200,-38.5780555555556,-71.6166666666667,Montero,2048,9-Jan-1935,,,,,,,,,1,,,,,,,,,,,,,,,,,
WE24190,Escallonia alpina Poepp. ex DC. var. alpina ,Chile,Magallanes,Ultima Esperanza,"Cerro Doratea, 5 km north of Puerto Natales",Semishade of Nothofagus talus slope,50,-51.7333333333333,-72.5166666666667,"W.J. Eyerdam, A.A. Beetle, E. Grondona",24190,8-Jan-1939,"Shrub to 0.5 m, corolla white or pink-tinged",1,,,,1,,1,,1,,,,,,,,,,,,,,,,
JW5159,Escallonia alpina Poepp. ex DC. var. carmelitana (Meyen) Acevedo & Kausel ,Chile,Valparaiso,,"Cerro Vizcachas, Ridge of Cerro","Mountain flats, among open growth of xerophytic shrubs",2100,-33.0833333333333,-70.7666666666667,J. West,5159,15-Jan-1936,"Shrub 1-1.5 m high; dark crimson flower. Only few spcms seen, mostly near a small sping. Plant forms dense, twiggy, hemispherical bushes",1,,,,1,,1,,,,,,,,,,,,,,,,,,
ZR138,Escallonia alpina Poepp. ex DC. var. carmelitana (Meyen) Acevedo & Kausel,Argentina,Neuquén,Loncopué,Cajón Chenque Pehuén,Valle a la entrada del Cajón,1776,-38.1,-70.9166666666667,"Z. Rúgolo, E. Agrasar",138,14-Jan-1965,Arbusto 0.70 m,,,,,,,,1,,,,,,,,,,,,,,,,,
CE10632,Escallonia virgata (Ruiz & Pav.) Pers.,Chile,Los Lagos,Chaitén,"Santa Lucía, near Carretera Austral, a 81 km de Chaitén",Pature arboré le long du Rio Frío,330,-43.4166666666667,-73.3583333333333,C. Evrard,10632,10-Feb-1985,"Arbuste 2 m de haut, fl. blanches",,,,,,,,,,,,1,,,,,,,,,,,,,
EW1253,Escallonia virgata (Ruiz & Pav.) Pers.,Chile,Araucania,Cautín,Volcán Llaima,,1000,-38.6841666666667,-71.8472222222222,E. Werdermann,1253,1-Feb-1927,,1,1,1,1,1,,1,,,1,,,1,,,,,,,,,,,,
FZ111,Escallonia virgata (Ruiz & Pav.) Pers.,Chile,Los Lagos,Osorno,"Parque Nacional Puyehue, camino a Volcán Casablanca, ñadi mirador los Mallines",,715,-40.7669444444444,-72.2922222222222,F. Zapata,111,26-Oct-2005,"Arbusto muy común de 50 -80 cm, ramas jóvenes rojizas, hojas jóvenes con márgenes rojizos, no flores, no frutos.",1,,,,,,,,,,,,,,,,,,,,1,,,,
FZ370,Escallonia virgata (Ruiz & Pav.) Pers.,Chile,Biobio,Angol,"Parque Nacional Nahuelbuta, salida hacia Cañete viniendo de Angol, cerca a casa de guardaparques","A orillas de un arroyo, en bosque con Nothofagus, Araucaria, Baccharis, Chusquea",1206,-37.8088888888889,-73.0166666666667,"F. Zapata, S. Sede",370,20-Jan-2008,"Arbusto 2 m, muy ramificado, madera jóven rojiza, flores con base del cáliz rosado oscuro y pétalos blancos",1,,,,,,,,,,,,,,,,,,,,1,,,,
FZ460,Escallonia virgata (Ruiz & Pav.) Pers.,Chile,Araucania,Victoria,"Curacautín, camino de Termas de Tolhuaca a Parque Nacional Tolhuaca-laguna Malleco, ca. 4km antes de llegar al parque","En planicie que presumiblemente se inunda en época de lluvias.  Estas planicies aparecen en medio del bosque nativo de Nothofagus y Araucaria.  En las planicies también hay Chusquea, Berberis y Calamagrostris (??)",940,-38.2186111111111,-71.7941666666667,"F. Zapata, S. Sede",460,24-Jan-2008,"Arbusto 1 m, flores blancas y las flores jóvenes rosado muy pálido",1,,,,,,,,,,,,,,,,,,,,1,,,,
FZ485,Escallonia virgata (Ruiz & Pav.) Pers.,Chile,Maule,Talca,"VIlches Alto, Reserva Nacional Altos del Lircay, sendero hacia la laguna del Alto",A orillas de una quebrada en medio de un pastizal altoandino (principalmente con Chusquea) formando un gran parche. En la quebrada también crece Mimulus y en la parte más alta de la quebrada también hay E. alpina (FZ-487),1930,-35.5994444444444,-71.0102777777778,"F. Zapata, S. Sede",485,28-Jan-2008,"Arbusto 1.5 m, flores blancas, ovario y disco rojizo",1,,,,,,,,,,,,,,,,,,,,1,,,,
FZ508,Escallonia virgata (Ruiz & Pav.) Pers.,Chile,Los Lagos,Osorno,"Parque Nacional Puyehue, camino a Volcán Casablanca, ñadi mirador los Mallines","ñadi (Mallin), terreno completamente inundado, con Chusquea, Nothofagus, Berberis y diferentes especies de musgos",715,-40.7675,-72.2927777777778,"F. Zapata, S. Sede",508,1-Feb-2008,"Arbusto 1 m, flores blancas",1,,,,,,,,,,,,,,,,,,,,1,,,,
GB1213,Escallonia virgata (Ruiz & Pav.) Pers.,Argentina,Neuquén,Lacar,Alrededores del Lago Currué Chico,,910,-39.9047222222222,-71.3355555555555,"G.E. Barboza, J. Chiapella, A.M. Matesevach, E.M. Filippa, F. Chiarini",1213,23-Feb-2005,,,,,,,,,,,,,,,1,,,,,,,,,,,
GS2207,Escallonia virgata (Ruiz & Pav.) Pers.,Argentina,Neuquén,Aluminé,"Villa Pehuenia, Lago Moquehue","En borde de laguna, terreno arcilloso, inundable",1200,-38.9055555555556,-71.3,G. Seijo,2207,9-Jan-2000,Arbusto 1.5 m alto con base sumergida.  FLores de color balnco rosado,,,,,,,,,1,,,,,,,,,,,,,,,,
MB397,Escallonia virgata (Ruiz & Pav.) Pers.,Argentina,Chubut,,"Ruta 15, 3 km al oeste de intersección de Ruta 15 y Ruta 40",En laderas de cerros y zonas humedas,800,-42.3936388888889,-71.1650833333333,"M. Bonifacino, P. Herhardt, V. Romano",397,11-Jan-2002,Flores blancas,,,,1,,,,,,,,,,,,,,,,,,,,,
MG4196,Escallonia virgata (Ruiz & Pav.) Pers.,Chile,Los Lagos,Valdivia,T45 from Los Lagos to Rinihue 10 km west of town,Secondary vegetation dominated by Nothofagus spp.,100,-39.85,-72.5,"M.F. Gardner, S.G. Knees",4196,16-Feb-1988,"Shrub to 1.5 m, flowers white",,,,,,,,,1,1,,,,,,,,,,,,,,,
MG4697,Escallonia virgata (Ruiz & Pav.) Pers.,Chile,Araucania,Cautín,10 km S of Licura,Dry sparsely vegetated hills with small colony of Araucaria,1150,-38.7333333333333,-71.05,"M.F. Gardner, S.G. Knee",4697,3-Feb-1990,"Shrub 1. 5m, flowers white",,,,,,,,,1,1,,,,,,,,,,,,,,,
OZ11557,Escallonia virgata (Ruiz & Pav.) Pers.,Chile,Malleco,Lonquimay,Near Tunel Las Raices,,1582,-38.5333333333333,-71.4666666666667,O. Zöllner,11557,5-Feb-1983,,1,,,,,,,,,,,,,,,,,,,,,,,,
OZ2304,Escallonia virgata (Ruiz & Pav.) Pers.,Chile,Biobio,Los Angeles,Laguna del Laja,"an einem Bach, der in die Laguna mündet",2000,-37.3052777777778,-71.3397222222222,O. Zöllner,2304,1-Feb-1968,,,,,,,,,1,,,,,,,,,,,,,,,,,
PB1101,Escallonia virgata (Ruiz & Pav.) Pers.,Chile,Biobio,Nuble,"Pinto, Cordillera de los Andes, Termas de Chillán. From the village of Los Lleques on road to Los Cerrillos. Down from FUndo Las Cuesta to Fundo Los Lleques","Remnant of Nothofagus dombeyi, N. nervosa y N. obliqua dominated forest with all large trees logged out and now used as pasture land.  Poorly drained soils with standing water",1001,-36.8632222222222,-71.5933055555555,"P. Brownless, M.F. Gardner, P. Hechenleitner V, P. Thomas - Darwin Chilean Initiative (2002-2005)",1101,30-Jan-2004,"Shrub to 1.5 m tall, flowers white",,,,,,,,,,1,,,,,,,,,,,,,,,
PB763,Escallonia virgata (Ruiz & Pav.) Pers.,Chile,Biobio,Ralco,"Cordillera de los Andes, Reserva Nacional Ralco, road to Laguna Verde",Riverside Bank,1252,-37.909,-71.3401111111111,"P. Brownless, M.F. Gardner, P. Hechenleitner V, A. Lovett, P. Thomas - Darwin Chilean Initiative (2002-2005)",763,17-Jan-2004,Evergreen shrub to 1 m tall. Flowers white,,,,,,,,,,1,,,,,,,,,,,,,,,
PH319,Escallonia virgata (Ruiz & Pav.) Pers.,Argentina,Río Negro,Bariloche,"Parque Nacional Nahuel Huapi, Puerto Blast","Creciendo a orilla de la laguna Hermosa con Nothofagus dombeyi, Saxegothaea conspicua, Myrceugenia chrysocarpa, Gaultheria poepiggii, Fitzroya cupressoides, Lomatia ferruginea, Chusquea sp.",900,-40.6833333333333,-71.7,"P. Hechenleitner V, MF. Gardner, C. Martínez, R. Ennos",319,15-Feb-2006,Arbusto 2 m,,,,,,,,,,1,,,,,,,,,,,,,,,
PH338,Escallonia virgata (Ruiz & Pav.) Pers.,Chile,Magallanes,Ultima Esperanza,"Torres del Paine, camino monumento Naturanl Cueva del Milodón hacia silla del diablo","Bosque de Nothofagus antartica asociado a suelo seco, creciendo junto con Berberis buxifolia, Chiliotrichum sp.",61,-51.5878055555556,-72.6022777777778,"P. Hechenleitner V, MF. Gardner, C. Martínez, R. Ennos",338,22-Feb-2006,"Arbusto de hasta 1.5-2 m, flores blancas",,,,,,,,,,1,,,,,,,,,,,,,,,
RF4946,Escallonia virgata (Ruiz & Pav.) Pers.,Argentina,Santa Cruz,Lago Argentino,"32 km al N de El Chaltén, en dirección a Laguna del Desierto.","Renoval de ñire, con Misodendrum, bordeando río de las Vueltas",500,-49.1,-72.9,"R.H. Fortnato, M. Elechosa",4946,5-Feb-1995,Arbusto de +/- 1.7-2 m de alt. Flor blanca,1,1,,1,,,,,1,,,,,,,,,,,,,,,,
YM7893,Escallonia virgata (Ruiz & Pav.) Pers.,Chile,Curicó,Curicó,"Cordillera Peteroa-Planchón, flanks Volcán Planchón",Steep cliff,3000,-35.2,-70.5833333333333,Y. Mexia,7893,15-Feb-1936,"Shrub, partly prostrate, pinkish white flower",1,,1,,1,,,1,1,,,,,,,,,,,,,,,,
EPIII64,Escallonia florida Poepp. ex DC.,Chile,Biobio,Los Angeles,Andes de Antuco,Lecho pedregoso del Rio Rucué,1200,-37.3,-71.95,E. Poeppig,III64,,,,,,,,,,0,,,,,,,,,,,,,,,,,
FZ431,Escallonia florida Poepp. ex DC.,Chile,Araucania,Victoria,"Curacautin, Termas Rio Blanco, subiendo por el lecho del río en el márgen izquierdo","Bosque nativo con Nothofagus, Araucaria, Calceolaria, diferentes Asteraceae, Chusquea.  Suelo rocoso, húmedo.",1055,-38.5769444444445,-71.6288888888889,"F. Zapata, S. Sede",431,24-Jan-2008,"Arbusto 2 m, muy ramificado, ramas largas (ca. 2m) decumbentes; flores blancas. Había varias polillas visitando las flores.",1,,,,,,,,,,,,,,,,,,,,1,,,,
FZ438,Escallonia florida Poepp. ex DC.,Chile,Araucania,Victoria,"Curacautin, Termas Rio Blanco, subiendo por el lecho del río en el márgen izquierdo","Bosque nativo con Nothofagus, Araucaria, Calceolaria, diferentes Asteraceae, Chusquea.  Suelo rocoso, húmedo.",1164,-38.5777777777778,-71.6227777777778,"F. Zapata, S. Sede",438,24-Jan-2008,"Arbusto 2 m, muy ramificado, ramas muy largas (ca. 2 m) decumbentes; flores roasadas.  Formando un parche de individuos con esta morfología, solamente a esta altura y en este lugar; más abajo solo hay la forma más típica de E. florida (de flores blancas) y más arriba E. alpina.  Las hojas son más anchasque la típica E. florida y las flores son rosadas.  Podría ser un híbrido entre estas especies? una variante ecológica? Había abejas visitando las flores",1,,,,,,,,,,,,,,,,,,,,1,,,,
GM2701,Escallonia florida Poepp. ex DC.,Chile,Araucania,Cautin,"Curacautin, Termas Rio Blanco",,1150,-38.5472222222222,-71.6772222222222,G. Montero,2701,15-Feb-1936,,,,,,,,1,,,,,,,,,,,,,,,,,,
MG4975,Escallonia florida Poepp. ex DC.,Chile,Araucania,Malleco,12 KM west of Angol on road to Piedra del Aguila,Rejuvenating Valdivian forest dominated by Nothofagus obliqua,800,-37.7833333333333,-72.8166666666667,"M.F. Gardner, C.N. Page",4975,10-Feb-1992,"Evergreen shrub to 2 m, flowers white, calyx tinged red",,,,,,,,,,1,,,,,,,,,,,,,,,
MG5549,Escallonia florida Poepp. ex DC.,Chile,Biobio,Nitrao,6 Km NE od village towards Trapatrapa,Seasonally flooded margins of large river,1040,-37.7166666666667,-71.2166666666667,"M.F. Gardner, S.G. Knees",5549,17-Feb-1993,"Evergreen shrub to 90 cm, flowers white",,,,,,,,,,1,,,,,,,,,,,,,,,
OZ2302,Escallonia florida Poepp. ex DC.,Chile,Biobio,Los Angeles,"Sierra de Polcura, Laguna del Laja",,2000,-37.2830555555556,-71.7166666666667,O. Zöllner,2302,1-Feb-1968,"Hohe Büsche über und über mit weissen Blüten bedeckt, an quelligen Standorten [High bushes covered with white blooms, at locations quelligen]",,,,,,,,1,,,,,,,,,,,,,,,,,
PB479,Escallonia florida Poepp. ex DC.,Chile,Biobio,Biobio,New logging road west of Parque Nacional Laguna de la Laja,Temperate rainforest with Nothofagus procera and Saxegothaeca conspicua,1150,-37.3975,-71.4941666666667,"P. Brownless, M.F. Gardner, H.S. Maxwell, R. Rozzi",479,27-Feb-1996,"Shrub to 2 m, sparsely brnached",,,,,,,,,,1,,,,,,,,,,,,,,,
PB835,Escallonia florida Poepp. ex DC.,Chile,Araucania,Malleco,"Angol, road to Maitenrehue, property of Pitrufquen (Forestal MININCO). First Pitavia sample site","Small wet quebrada with recently burnt native forest remnant.  Associated species include Luma apicaulata, E. virgata",624,-37.6095,-72.7745,"P. Brownless, M.F. Gardner, P. Hechenleitner, A. Lovett, M. Hollingsworth, C. Martinez, P. Thomas-Darwin Chilean Initiative (2002-2005)",835,22-Jan-2004,Erect evergreen shrub to 75 cm tall. Flowers white,,,,,,,,,,1,,,,,,,,,,,,,,,
PB838,Escallonia florida Poepp. ex DC.,Chile,Araucania,Malleco,"Angol, road to Maitenrehue, property of Pitrufquen (Forestal MININCO). First Pitavia sample site","Small wet quebrada with recently burnt native forest remnant.  Associated species include Luma apicaulata, E. virgata",624,-37.6094444444444,-72.7744444444444,"P. Brownless, M.F. Gardner, P. Hechenleitner, A. Lovett, M. Hollingsworth, C. Martinez, P. Thomas-Darwin Chilean Initiative (2002-2005)",838,22-Jan-2004,Erect evergreen shrub to 75 cm tall. Flowers white,,,,,,,,,,1,,,,,,,,,,,,,,,
Bs.n.,Escallonia revoluta (Ruiz & Pav.) Pers.,Chile,Valparaiso,Petorca,Zapallar,,140,-32.5333333333333,-71.45,Behn,s.n.,22-Feb-1917,"N.V. Lun, Site camisas",1,,1,,,,,,,,,,,,,,,,,,,,,,
CJ1847,Escallonia revoluta (Ruiz & Pav.) Pers.,Chile,Araucania,Temuco,Budi,,100,-38.8666666666667,-73.2997222222222,C. Joseph,1847,1-Jan-1923,,,1,,1,,,,,,,,,,,,,,,,,,,,,
CT11000,Escallonia revoluta (Ruiz & Pav.) Pers.,Chile,Maule,Linares,"East and a little south of Linares along the rio Ancoa, along the road to Melado and Medina 38.2 km upstream from the intersection with the road to Peñasco",Matorral and open woodlands dominated by Nothofagus and Lithraeae,900,-35.8477777777778,-71.25,"C.M. Taylor, R.E. Gereau",11000,21-Jan-1993,"Local, infrequent along river; shrubs to 3 m tall, flowers bright white",1,,,,,,,,,,,,,,,,,,,,,,,,
EK5372,Escallonia revoluta (Ruiz & Pav.) Pers.,Chile,Coquimbo,Los Vilos,"Zona Litoral, a 8 km al N de Los Vilos, al poniente de la Panamericana",Bosque pantanoso (algo seco),20,-31.8758333333333,-71.4833333333333,E. Kausel,5372,21-Feb-1968,"Arboles de 3 a 10 m, flores blancas, poco abundante en este sector",,,,,,,,1,,,,,,,,,,,,,,,,,
EW361,Escallonia revoluta (Ruiz & Pav.) Pers.,Chile,Loa Lagos,Valdivia,Panguipulli,,190,-39.6833333333333,-72.35,E. Werdermann,361,,,1,1,1,1,1,,1,,,1,,,,,,,,,,,,,,,
FZ125,Escallonia revoluta (Ruiz & Pav.) Pers.,Chile,Valparaiso,Caleu,Cerro El Roble,Creciendo en una depresión húmeda por donde baja una quebrada,1642,-32.9958333333333,-71.0294444444444,F. Zapata,125,6-Nov-2005,"Arbusto 2 m, hojas marcadamente pubscentes, principalmente por el envés, no flores, frutos secos. Sin olor",1,,,,,,,,,,,,,,,,,,,,1,,,,
FZ359,Escallonia revoluta (Ruiz & Pav.) Pers.,Chile,Biobio,Concepción,Nacimiento camino a Maitenrehue,"Borde de camino, terreno completamente anegado",399,-37.6366666666667,-72.7855555555555,"F. Zapata, S. Sede",359,19-Jan-2008,"Arbusto 3 m, madera jóven rojiza, flores rosado muy pálido con líneas oscuras en la parte apical de los pétalos y base del cáliz rosado",1,,,,,,,,,,,,,,,,,,,,1,,,,
FZ491,Escallonia revoluta (Ruiz & Pav.) Pers.,Chile,Maule,San Clemente,"Ruta de El Colorado a Armerillo, frente a lago Colbún",En borde de bosque mezclado con flora nativa e introducida,438,-35.6519444444444,-71.2513888888889,"F. Zapata, S. Sede",491,29-Jan-2008,"Arbol 3 m, flores blancas",1,,,,,,,,,,,,,,,,,,,,1,,,,
LL4440,Escallonia revoluta (Ruiz & Pav.) Pers.,Chile,Biobio,Concepción,Puente Cangrejillo ca. 30 km E of Concepcion along road to Los Angeles,Swamppy locality dominated by Juncus and sedges in wetter areas and by Myrtaceae around the edges,200,-36.9166666666667,-72.6666666666667,L. Landrum,4440,5-Apr-1982,Shrubby tree ca 6 km high,1,1,,,,,,1,,,,,,,,,,,,,,,,,
MG300,Escallonia revoluta (Ruiz & Pav.) Pers.,Chile,Maule,Linares,"Melado, Reserva Nacional Los Bellotos del Melado, Forest north of Guardaparque's house",Scleropyllous open forest close to watercourse,758,-35.8651666666667,-71.1201388888889,"M.F. Gardner, P. Hechenleitner, C. Martinez, P.I. Thomas-Darwin Chilean Initiative",300,28-Jan-2003,"Shrub to 2 m, flowers pink",,,,,,,,,,1,,,,,,,,,,,,,,,
MG4676,Escallonia revoluta (Ruiz & Pav.) Pers.,Chile,Biobio,Concepción,2 km W of Florida along CH148,Small pocket of native forest,250,-36.8333333333333,-72.6833333333333,"M.F. Gardner, S.G. Knees, M.L. De Vore",4676,31-Jan-1990,"Shrub to 5 m, flowers creamy white, flushed pink towards base of corolla",,,,,,,,,1,1,,,,,,,,,,,,,,,
MG5084,Escallonia revoluta (Ruiz & Pav.) Pers.,Chile,Valparaiso,Petorca,"Zapallar, 3 km south of town.",Ravine with water course rich in woody species engulfed by heavy cloud on a daily basis,116,-32.5666666666667,-71.45,"M.F. Gardner, C.N. Page",5084,7-Mar-1992,"Shrub to 5 m, flowers pure white, stigma green, shottos woolly hairy.  Whole plant covered with hairs.",,,,,,,,,,1,,,,,,,,,,,,,,,
MG5444,Escallonia revoluta (Ruiz & Pav.) Pers.,Chile,Santiago,Santiago,A 8 km west of Tiltil,"Rocky roadside verge dominated by Quillaja saponaria, Lithrea caustica, Azara petiolaris, Maytenus boaria",800,-33.0666666666667,-70.95,"M.F. Gardner, S.G. Knees",5444,6-Feb-1993,"Shrub to 5 m, flowers white with deep pink veins",,,,,,,,,,1,,,,,,,,,,,,,,,
MG5475,Escallonia revoluta (Ruiz & Pav.) Pers.,Chile,Maule,Curico,"10 km North of Los Quenes, upper valley of rio Teno","North facing drier slopes of Mediterranean type vegetation dominated by Quillaja saponaria, Cryptocarya alba, Lithrea caustica, Acacia caven",750,-34.9833333333333,-70.7666666666667,"M.F. Gardner, S.G. Knees",5475,10-Feb-1993,"Shrub to 3 m, flower pinkish white, sweetly scented.",,,,,,,,,,,,,,,,,,,,,,,,,
MG6977,Escallonia revoluta (Ruiz & Pav.) Pers.,Chile,Los Lagos,Valdivia,Southern road to Valdivia,Margin of flooded forest,1,-39.8770277777778,-73.1611666666667,"M.F. Gardner, S.G. Knees",6977,8-Jan-2004,"Shrub to 4 m tall. Leaves vivid green. Flowers creamy white, scented",,,,,,,,,,1,,,,,,,,,,,,,,,
OZ8726,Escallonia revoluta (Ruiz & Pav.) Pers.,Chile,Coquimbo,Los Vilos,"In the north of Los Vilos, in Palos Colorados",Bushes growing in moisty place,880,-31.9777777777778,-71.45,O. Zöllner,8726,11-May-1976,,1,,,,,,,,,,,,,,,,,,,,,,,,
PB1175,Escallonia revoluta (Ruiz & Pav.) Pers.,Chile,Maule,Talca,"San Clemente, Cordillera de Los Andes, valle de Maule, road from El Colorado to Armerillo, past dam",Roadside bank,424,-35.6663611111111,-71.2513333333333,"P. Brownless, M.F. Gardner, P. Hechenleitner, P. Thomas-Darwin Chilean Initiative (2002-2005)",1175,2-Feb-2004,"Shrub to 2.5 m tall, flowers white",,,,,,,,,,1,,,,,,,,,,,,,,,
PB455,Escallonia revoluta (Ruiz & Pav.) Pers.,Chile,Biobio,Biobio,East of bridge near Pangue on road to laguna de La Laja.,Amongst boulders on margin river,1000,-37.3941666666667,-71.4430555555556,"P. Brownless, M.F. Gardner, H.S. Maxwell, R. Rozzi",455,27-Feb-1996,"Shrub to 2.5 m, with pink-flushed stems, flowers scented, tube flushed pin outside, petals white, stamens flushed pink",,,,,,,,,,1,,,,,,,,,,,,,,,
PB487,Escallonia revoluta (Ruiz & Pav.) Pers.,Chile,Araucania,Malleco,"Angol, Cordillera Nahuelbuta, approach from Angol to Parque Nacional Nahuelbuta.","Margin of small river with Podocarpus salignus, Austrocedrus chilensis and Desfontainia spinosa",670,-37.8108333333333,-72.8969444444445,"P. Baxter, P. Brownless, M. Bustos, M. Gardner, K. Matthews, H.S. Maxwell, D. Rae",487,10-Mar-1998,"Evergreen shrub to 2 m, flowers white, corolla tube flushed pink outside",,,,,,,,,,1,,,,,,,,,,,,,,,
QH526,Escallonia revoluta (Ruiz & Pav.) Pers.,Chile,Araucania,Temuco,Conguillio National Park,By river,500,-38.6666666666667,-72,Q. Hai-Ning,526,27-Jan-1996,"Herb, ahite petal, light pink read in base",1,,,,,,,,,,,,,,,,,,,,,,,,
YM7858,Escallonia myrtoidea Bert. ex DC.,Chile,Curico,Curico,"Road Curico to Argentina, beyond Los Quenes","Along Arroyo Puerta, in Andean foothills",1240,-35.0488888888889,-70.5691666666667,Y. Mexia,7858,13-Feb-1936,"Scandent shrub, climbing small tree or erect; white flower.",1,1,,,1,,,,1,,,,,,,,,,,,,,,,
FZ126,Escallonia myrtoidea Bert. ex DC.,Chile,Valparaiso,Caleu,Cerro El Roble,Creciendo en una depresión húmeda por donde baja una quebrada,1650,-32.9930555555556,-71.0294444444444,F. Zapata,126,5-Nov-2005,"Arbol 2 m, hojas glabras, no flores, frutos secos. Sin olor",1,,,,,,,,,,,,,,,,,,,,1,,,,
FZ497,Escallonia myrtoidea Bert. ex DC.,Chile,Maule,Linares,"Camino a Embalse Ancoa a lo larto del río Ancoa, pasando Vega Ancoa",Matorral degradado a orillas del río,342,-35.9205555555556,-71.3677777777778,"F. Zapata, S. Sede",497,29-Jan-2008,"Arbolito 3 m, hojas no pubescentes, flores balncas",1,,,,,,,,,,,,,,,,,,,,1,,,,
FZ542,Escallonia myrtoidea Bert. ex DC.,Chile,Santiago,Santiago,Reserva Nacional Río Clarillo,"Típico chaparral mediterráneo de Chile Central a orillas del río Clarillo.  Creciendo con litre, Baccharis, y mucho Rubis que está invadiendo.  En simpatría con E. illinita, E. pulverulenta (no fl. fr.) y E. rubra (no fl. fr.) que fueron colectadas en 2005",920,-33.7297222222222,-70.4708333333333,"F. Zapata, F. Salinas",542,7-Feb-2008,"Arbusto 2 m, muy ramificado, madera jóven rojiza, flores blancas",1,,,,,,,,,,,,,,,,,,,,1,,,,
MG381,Escallonia myrtoidea Bert. ex DC.,Chile,Biobio,Nuble,"San Carlos, Fundo Bullileo, along Estero Bullileo","East-facing flatter and moister areas above estero dominated by Nothofagus glauca, N. dombeyi, Laurelia sempervirens, Persea lingue and Luma apiculata. Open rocky slopes",811,-36.5786944444444,-71.4550833333333,"M.F. Gardner, P. Hechenleitner, C. Martinez, P.I. Thomas-Darwin Chilean Initiative",381,31-Jan-2003,"Glabrous shrub to 1.8 m, flowers pale pink",,,,,,,,,,1,,,,,,,,,,,,,,,
MG384,Escallonia myrtoidea Bert. ex DC.,Chile,Biobio,Nuble,"San Carlos, Fundo Bullileo, along Estero Bullileo","Margin fast-flowing river amongst boulders dominated by Nothofagus glauca, N. dombeyi, Laurelia sempervirens, P. lingue, Luma apiculata",811,-36.5786666666667,-71.4550833333333,"M.F. Gardner, P. Hechenleitner, C. Martinez, P.I. Thomas-Darwin Chilean Initiative",384,31-Jan-2003,"Glabrous shrub to 1.8 m, flowers pale pink",,,,,,,,,,1,,,,,,,,,,,,,,,
MG5137,Escallonia myrtoidea Bert. ex DC.,Chile,Santiago,Santiago,"Valle del Mapocho, La Ermita","Rocky verge with Lithrea caustica, Colletia sp.",1270,-33.3333333333333,-70.3666666666667,"M.F. Gardner, A. Hoffmann, C.N. Page",5137,13-Mar-1992,"Overhanging shrub to 4 m, with pure white flowers, anthers yellow, stigmas green",,,,,,,,,,1,,,,,,,,,,,,,,,
MG532,Escallonia myrtoidea Bert. ex DC.,Chile,Biobio,Nuble,"San Carlos, Fundo Bullileo, along Estero Bullileo","Margin fast-flowing river amongst boulders dominated by Nothofagus glauca, N. dombeyi, Laurelia sempervirens, P. lingue, Luma apiculata",811,-36.5786944444444,-71.4550555555556,"M.F. Gardner, P. Hechenleitner, C. Martinez, P.I. Thomas-Darwin Chilean Initiative",532,31-Jan-2003,,,,,,,,,,,1,,,,,,,,,,,,,,,
MG5492,Escallonia myrtoidea Bert. ex DC.,Chile,Maule,Curico,"10 km North of Los Quenes, upper valley of rio Teno","Mediterranean type vegetation dominated by Quillaja saponaria, Cryptocarya alba, Lithrea caustica, Acacia caven. West facing bank of stream",750,-34.9836111111111,-70.7666666666667,"M.F. Gardner, S.G. Knees",5492,11-Feb-1993,"Shrub to 4 m, with arching branches.  Flowers pure white at first, eventually pinkish",,,,,,,,,,1,,,,,,,,,,,,,,,
MG568,Escallonia myrtoidea Bert. ex DC.,Chile,Biobio,Arauco,"Cañete, road from Antiguala to San Alfonso (km 18), near the Rio Caramavida",Primary forest on steep slopes leading down to river with a groove of enormous trees of Gomortega keula,485,-37.6792777777778,-73.2272777777778,"M.F. Gardner, P. Hechenleitner, C. Martinez, P.I. Thomas-Darwin Chilean Initiative",568,7-Feb-2003,"Small shrub with arching branches, flowers over-probably white",,,,,,,,,,1,,,,,,,,,,,,,,,
OB6473,Escallonia myrtoidea Bert. ex DC.,Chile,Valparaiso,,Quebrada Caleu,En quebrada húmeda al comienzo del valle,1200,-33.0022222222222,-71.0061111111111,O. Boelcke,6473,1-Mar-1952,Arbol 4-5 m,1,,1,,,,,,1,,,,,,,,,,,,,,,,
OZ5577,Escallonia myrtoidea Bert. ex DC.,Chile,Coquimbo,Los Molles,,,1000,-29.9666666666667,-70.9333333333333,O. Zöllner,5577,15-Jan-1972,Am Bach wachsend,,,,,,,,1,,,,,,,,,,,,,,,,,
OZ9278,Escallonia myrtoidea Bert. ex DC.,Chile,Colchagua,San Fernando,Baths El Flaco,,2000,-34.95,-70.4333333333333,O. Zöllner,9278,10-Apr-1977,,1,,,,,,,,,,,,,,,,,,,,,,,,
PB500,Escallonia myrtoidea Bert. ex DC.,Chile,Biobio,Arauco,"Arauco, cordillera Nahuelbuta, Rio Carmavida",,120,-37.6808333333333,-73.295,"P. Baxter, P. Brownless, M. Bustos, M. Gardner, K. Matthews, H.S. Maxwell, D. Rae",500,11-Mar-1998,,,,,,,,,,,1,,,,,,,,,,,,,,,
PB644,Escallonia myrtoidea Bert. ex DC.,Chile,Santiago,Santiago,Road to Farallones.,Rocky roadside slopes,1700,-33.3233333333333,-70.3175,"P. Brownless, M.F. Gardner, H.S. Maxwell, R. Rozzi",644,10-Mar-1996,"Evergreen shrub to 3 m with arching branches; flowers whte, petal pink at base",,,,,,,,,,1,,,,,,,,,,,,,,,
PB71,Escallonia myrtoidea Bert. ex DC.,Chile,Maule,Talca,"Cordillera de Los Andes, Valle de Maule",Steep unstable screes above mountain stream,1470,-35.9125,-70.6427777777778,"P. Baxter, P. Brownless, M. Bustos, M. Gardner, K. Matthews, H.S. Maxwell, D. Rae",71,5-Feb-1998,"Multi-stemmed shrub to 2-3 m, flowers white, tinged pink, scented",,,,,,,,,,1,,,,,,,,,,,,,,,
BH5892,Escallonia rubra (Ruiz & Pav.) Pers.,Chile,Llanquihue,Puerto Varas,40 km N of Puerto Varas along road to Petrohue,,300,-41.1333333333333,-72.5166666666667,B. Hammel,5892,9-Dec-1978,"Shrub 1 m, flowers red.",1,,,,,,,,,,,,,,,,,,,,,,,,
CC2,Escallonia rubra (Ruiz & Pav.) Pers.,Chile,Los Lagos,Los Muermos,Punta Estaquilla,Creciendo en alforamiento rocoso de la costa,10,-41.3952777777778,-73.8333333333333,C. Cornelius,2,12-Oct-2005,"Arbusto 1 m, hojas con márgenes que parecen un poco más diferentes de los típicos de E. rubra y que son menos aserrados y las hojas son un poco más redondeadas",1,,,,,,,,,,,,,,,,,,,,1,,,,
EWs.n.,Escallonia rubra (Ruiz & Pav.) Pers.,Chile,Llanquihue,Ensenada,,,60,-41.2,-72.55,E. Wall,s.n.,10-Jan-1947,,1,,,,,,,,,,,,,,,,,,,,,,,,
FZ106,Escallonia rubra (Ruiz & Pav.) Pers.,Chile,Los Rios,Llanquihue,,"Orillas del lago Llanquihue, creciendo en una zona muy humeda a orillas del lago (es muy común).  COn Gunnera, Fuchsia magellanica, Gaultheria, Berberis",62,-41.2263888888889,-72.6383333333333,F. Zapata,106,11-Oct-2005,"Arbusto 2 m, hojas jóvenes muy glutinosas, flores rosado oscuro, frutos secos",1,,,,,,,,,,,,,,,,,,,,1,,,,
FZ119,Escallonia rubra (Ruiz & Pav.) Pers.,Chile,Santiago,Cordillera,Reserva Nacional Río Clarillo,"Ladera pedregos, creciendo en  simpatría absoluta (uno al lado del otro) de E. myrtoidea y E. pulverulenta",954,-33.7291666666667,-70.4705555555556,F. Zapata,119,5-Nov-2005,"Arbusto pequeño, 80 cm, hojas no glutinosas, flores de color rojizo oscuro (más oscuro que otras típicas E. rubra; no frutos",1,,,,,,,,,,,,,,,,,,,,1,,,,
FZ406,Escallonia rubra (Ruiz & Pav.) Pers.,Chile,Biobio,Antuco,"Camino de ascenso de Antuco a Parque Nacional Laguna del Laja, después de señal de rocas desprendibles","En una pared rocosa, muy cerca de un cureso de agua. Con Gunnera, Fuchsia, Calceolaria, Fabaceae, Poacee",803,-37.3933333333333,-71.4627777777778,"F. Zapata, S. Sede",406,22-Jan-2008,"Arbusto 1.5 m, muy ramificado, cáliz rojizo, flores un poco pasadas con pétalos rojo muy oscuro; glándulas en cáliz y hojas!",1,,,,,,,,,,,,,,,,,,,,1,,,,
FZ425,Escallonia rubra (Ruiz & Pav.) Pers.,Chile,Araucania,Victoria,"Curacautin, camino a Termas de Río Blanco, puente río Negro","A orillas del río, con Nothofagus",798,-38.5394722222222,-71.6758888888889,"F. Zapata, S. Sede",425,23-Jan-2008,"Arbusto 50 cm, flores rojos intenso",1,,,,,,,,,,,,,,,,,,,,1,,,,
FZ440,Escallonia rubra (Ruiz & Pav.) Pers.,Chile,Araucania,Victoria,"Curacautín, termas de Río Blanco","Subiendo por lecho del río, parte alta del bosque nativo con muy poco árboles de Nothofagus y Araucaria",1166,-38.5777777777778,-71.6230555555556,"F. Zapata, S. Sede",440,24-Jan-2008,"Arbusto 80 cm, cáliz rojizo, pétalos rojizos. Muy poco individuos, Había muchas abejas visitando las flores.  En la parte de más abajo crece E. florida y posiblemente haya flujo genético entre estas dos especies",1,,,,,,,,,,,,,,,,,,,,1,,,,
FZ444,Escallonia rubra (Ruiz & Pav.) Pers.,Chile,Araucania,Victoria,"Curacautin, camino a Termas de Río Blanco, subiendo por el lecho del río Blanco",Parte alta del bosque natuvo con muy pocos árboles de Nothofagus y Araucaria.,1130,-38.5780555555556,-71.6222222222222,"F. Zapata, S. Sede",444,24-Jan-2008,"Arbusto 80 cm, cáliz rojizo, pétalos rojos. Pocos individuos. Había abjeas visitando las flores. Ver posible hibridización con E. florida!!",1,,,,,,,,,,,,,,,,,,,,1,,,,
